place_id,name,rating,user_ratings_total,current_opening_hours,postcode,location_lat,location_lng,viewport_northeast_lat,viewport_northeast_lng,viewport_southwest_lat,viewport_southwest_lng
ChIJW5DBD5sN2jERGqEgoyFtJ1E,SIREH Park Corporate Office,4.5,2.0,"['Monday: 8:30\u202fAM\u2009–\u20095:30\u202fPM', 'Tuesday: 8:30\u202fAM\u2009–\u20095:30\u202fPM', 'Wednesday: 8:30\u202fAM\u2009–\u20095:30\u202fPM', 'Thursday: 8:30\u202fAM\u2009–\u20095:30\u202fPM', 'Friday: 8:30\u202fAM\u2009–\u20095:30\u202fPM', 'Saturday: Closed', 'Sunday: Closed']",79100,1.4739195,103.6417079,1.475318329892722,103.6430184298927,1.472618670107278,103.6403187701073
ChIJHxMkzt4S2jERiFxIz1n_koA,Johor Petroleum Development Corporation Berhad,4.7,6.0,,80300,1.4629805,103.7719136,1.464001979892722,103.7732624798927,1.461302320107278,103.7705628201073
ChIJ7QPYPyxs2jERVQ7D2e2vPto,The Q Business Centre,0.0,0.0,"['Monday: 8:30\u202fAM\u2009–\u20095:30\u202fPM', 'Tuesday: 8:30\u202fAM\u2009–\u20095:30\u202fPM', 'Wednesday: 8:30\u202fAM\u2009–\u20095:30\u202fPM', 'Thursday: 8:30\u202fAM\u2009–\u20095:30\u202fPM', 'Friday: 8:30\u202fAM\u2009–\u20095:30\u202fPM', 'Saturday: Closed', 'Sunday: Closed']",81100,1.5654235,103.7774709,1.566736729892722,103.7788463798927,1.564037070107278,103.7761467201073
ChIJ39T_PmIT2jERi0s2b_b-OW0,Johor Corporation,4.5,2.0,"['Monday: 8:00\u202fAM\u2009–\u20095:15\u202fPM', 'Tuesday: 8:00\u202fAM\u2009–\u20095:15\u202fPM', 'Wednesday: 8:00\u202fAM\u2009–\u20095:15\u202fPM', 'Thursday: 8:00\u202fAM\u2009–\u20095:15\u202fPM', 'Friday: Closed', 'Saturday: Closed', 'Sunday: 8:00\u202fAM\u2009–\u20095:15\u202fPM']",80000,1.4637315,103.7629541,1.464886629892722,103.7641135298927,1.462186970107278,103.7614138701073
ChIJ1aor-0AT2jERmeCmIDwxXhk,Menara Landmark Johor Bahru,4.2,19.0,"['Monday: 8:00\u202fAM\u2009–\u20096:00\u202fPM', 'Tuesday: 8:00\u202fAM\u2009–\u20096:00\u202fPM', 'Wednesday: 8:00\u202fAM\u2009–\u20096:00\u202fPM', 'Thursday: 8:00\u202fAM\u2009–\u20096:00\u202fPM', 'Friday: 8:00\u202fAM\u2009–\u20096:00\u202fPM', 'Saturday: Closed', 'Sunday: Closed']",80000,1.4652735,103.7596854,1.466720529892722,103.7611835798927,1.464020870107278,103.7584839201073
ChIJedUd3Xdt2jERrWCMU1Uoo_E,Minde Group,3.7,6.0,"['Monday: 8:45\u202fAM\u2009–\u20096:00\u202fPM', 'Tuesday: 8:45\u202fAM\u2009–\u20096:00\u202fPM', 'Wednesday: 8:45\u202fAM\u2009–\u20096:00\u202fPM', 'Thursday: 8:45\u202fAM\u2009–\u20096:00\u202fPM', 'Friday: 8:45\u202fAM\u2009–\u20096:00\u202fPM', 'Saturday: Closed', 'Sunday: Closed']",81100,1.5463976,103.7807899,1.547716079892722,103.7821571798927,1.545016420107278,103.7794575201073
ChIJg9aNAk9u2jER4NX5MXtYUq0,Forreststone Corporate Advisory Group,5.0,1.0,,81100,1.5831877,103.7602226,1.584535079892722,103.7616308798927,1.581835420107278,103.7589312201073
ChIJF4IAbXBt2jERPc4YawKL3QM,Wentel Corporation Sdn. Bhd.,3.9,47.0,"['Monday: Open 24 hours', 'Tuesday: Open 24 hours', 'Wednesday: Open 24 hours', 'Thursday: Open 24 hours', 'Friday: Open 24 hours', 'Saturday: Open 24 hours', 'Sunday: Closed']",81300,1.5436436,103.6896517,1.545502179892722,103.6910322798927,1.542802520107278,103.6883326201073
ChIJFXkEPVlv2jER8cXQfJsoDQ0,SWM Environment Sdn. Bhd. Regional Office (Johor South),2.8,20.0,"['Monday: 8:30\u202fAM\u2009–\u20095:30\u202fPM', 'Tuesday: 8:30\u202fAM\u2009–\u20095:30\u202fPM', 'Wednesday: 8:30\u202fAM\u2009–\u20095:30\u202fPM', 'Thursday: 8:30\u202fAM\u2009–\u20095:30\u202fPM', 'Friday: Closed', 'Saturday: Closed', 'Sunday: 8:30\u202fAM\u2009–\u20095:30\u202fPM']",81100,1.5621348,103.7344407,1.563446829892722,103.7357580298927,1.560747170107278,103.7330583701073
ChIJkeSEYYhu2jER76F2PeTRPzQ,LiveSmart Asia Manhattan Johor,5.0,2.0,"['Monday: 9:00\u202fAM\u2009–\u20095:00\u202fPM', 'Tuesday: 9:00\u202fAM\u2009–\u20095:00\u202fPM', 'Wednesday: 9:00\u202fAM\u2009–\u20095:00\u202fPM', 'Thursday: 9:00\u202fAM\u2009–\u20095:00\u202fPM', 'Friday: 9:00\u202fAM\u2009–\u20095:00\u202fPM', 'Saturday: Closed', 'Sunday: Closed']",81100,1.5628348,103.7779706,1.564147129892722,103.7792590798927,1.561447470107278,103.7765594201073
ChIJoUOxuk1z2jERm2TQOm29YFw,Marin Selatan Sdn. Bhd. (Johor Office),5.0,1.0,"['Monday: 8:30\u202fAM\u2009–\u20095:30\u202fPM', 'Tuesday: 8:30\u202fAM\u2009–\u20095:30\u202fPM', 'Wednesday: 8:30\u202fAM\u2009–\u20095:30\u202fPM', 'Thursday: 8:30\u202fAM\u2009–\u20095:30\u202fPM', 'Friday: 8:30\u202fAM\u2009–\u20095:30\u202fPM', 'Saturday: Closed', 'Sunday: Closed']",81200,1.4803613,103.6499404,1.481698579892722,103.6512608798927,1.478998920107278,103.6485612201073
ChIJ4bH7E8IS2jERGbGAUud1KDs,Austin Heights Sdn. Bhd.,5.0,1.0,"['Monday: 8:30\u202fAM\u2009–\u20095:00\u202fPM', 'Tuesday: 8:30\u202fAM\u2009–\u20095:00\u202fPM', 'Wednesday: 8:30\u202fAM\u2009–\u20095:00\u202fPM', 'Thursday: 8:30\u202fAM\u2009–\u20095:00\u202fPM', 'Friday: 8:30\u202fAM\u2009–\u20095:00\u202fPM', 'Saturday: 8:30\u202fAM\u2009–\u20091:00\u202fPM', 'Sunday: Closed']",80000,1.4598809,103.7589926,1.461334179892722,103.7603978798927,1.458634520107278,103.7576982201073
ChIJD3rMT2x62jERLoQ8Px0veGc,Senai Airport City Sdn Bhd,4.2,24.0,"['Monday: 8:30\u202fAM\u2009–\u20095:30\u202fPM', 'Tuesday: 8:30\u202fAM\u2009–\u20095:30\u202fPM', 'Wednesday: 8:30\u202fAM\u2009–\u20095:30\u202fPM', 'Thursday: 8:30\u202fAM\u2009–\u20095:30\u202fPM', 'Friday: 8:30\u202fAM\u2009–\u20095:30\u202fPM', 'Saturday: Closed', 'Sunday: Closed']",81400,1.5953355,103.6780554,1.596680079892722,103.6793969298927,1.593980420107278,103.6766972701073
ChIJQ9HdzK1y2jERDLDOVKx7xdE,Iskandar Waterfront Holdings,2.4,13.0,"['Monday: 8:30\u202fAM\u2009–\u20096:00\u202fPM', 'Tuesday: 8:30\u202fAM\u2009–\u20096:00\u202fPM', 'Wednesday: 8:30\u202fAM\u2009–\u20096:00\u202fPM', 'Thursday: 8:30\u202fAM\u2009–\u20096:00\u202fPM', 'Friday: 8:30\u202fAM\u2009–\u20096:00\u202fPM', 'Saturday: Closed', 'Sunday: Closed']",80200,1.4828157,103.7187146,1.484124179892722,103.7200956298927,1.481424520107278,103.7173959701073
ChIJiVohTTRs2jERFxy3bAKFpRs,Pembinaan Eastern Aluminium Sdn Bhd (Known as Eastern Group of Companies),4.3,3.0,"['Monday: 8:30\u202fAM\u2009–\u20096:00\u202fPM', 'Tuesday: 8:30\u202fAM\u2009–\u20096:00\u202fPM', 'Wednesday: 8:30\u202fAM\u2009–\u20096:00\u202fPM', 'Thursday: 8:30\u202fAM\u2009–\u20096:00\u202fPM', 'Friday: 8:30\u202fAM\u2009–\u20096:00\u202fPM', 'Saturday: 8:30\u202fAM\u2009–\u20091:00\u202fPM', 'Sunday: Closed']",81100,1.5360837,103.7789422,1.537389579892722,103.7803437298927,1.534689920107278,103.7776440701073
ChIJw-rr5lBs2jERxSD1UN7uXyk,Rockwills Johor Regional Office,4.4,12.0,"['Monday: 9:00\u202fAM\u2009–\u20096:00\u202fPM', 'Tuesday: 9:00\u202fAM\u2009–\u20096:00\u202fPM', 'Wednesday: 9:00\u202fAM\u2009–\u20096:00\u202fPM', 'Thursday: 9:00\u202fAM\u2009–\u20096:00\u202fPM', 'Friday: 9:00\u202fAM\u2009–\u20096:00\u202fPM', 'Saturday: Closed', 'Sunday: Closed']",81300,1.5464631,103.705843,1.547813429892722,103.7071925798927,1.545113770107278,103.7044929201073
ChIJd4V26eBs2jERtBcu1wcowFc,Infra Desa (Johor),4.2,21.0,,81100,1.4964148,103.7796463,1.497724829892722,103.7809984298927,1.495025170107278,103.7782987701073
ChIJo8WArJNx2jERgYr6Xjul6Cc,WIN IMPACT NETWORK SDN BHD HQ,5.0,2.0,,81300,1.5562182,103.7176827,1.557621179892722,103.7190412298927,1.554921520107278,103.7163415701073
ChIJyUbEEqBv2jERP-Zl17D040w,Chudenko (M) Sdn Bhd - JB Office,0.0,0.0,,81800,1.5691375,103.8033921,1.570482329892722,103.8047456298927,1.567782670107278,103.8020459701073
ChIJlXUldW0M2jERXLcmp_yNSO4,JKR Johor (HQ),3.6,14.0,"['Monday: 8:00\u202fAM\u2009–\u20095:00\u202fPM', 'Tuesday: 8:00\u202fAM\u2009–\u20095:00\u202fPM', 'Wednesday: 8:00\u202fAM\u2009–\u20095:00\u202fPM', 'Thursday: 8:00\u202fAM\u2009–\u20093:30\u202fPM', 'Friday: Closed', 'Saturday: Closed', 'Sunday: 8:00\u202fAM\u2009–\u20095:00\u202fPM']",79100,1.4186777,103.652677,1.419998179892722,103.6539729298927,1.417298520107278,103.6512732701073
ChIJ-VsQtEAV2jER1WaokiEMj4k,KYUDENKO MALAYSIA SDN BHD JOHOR BAHRU,4.0,1.0,"['Monday: 8:30\u202fAM\u2009–\u20095:30\u202fPM', 'Tuesday: 8:30\u202fAM\u2009–\u20095:30\u202fPM', 'Wednesday: 8:30\u202fAM\u2009–\u20095:30\u202fPM', 'Thursday: 8:30\u202fAM\u2009–\u20095:30\u202fPM', 'Friday: 8:30\u202fAM\u2009–\u20095:30\u202fPM', 'Saturday: Closed', 'Sunday: Closed']",81750,1.4762796,103.8659259,1.477624029892722,103.8672729798927,1.474924370107278,103.8645733201073
ChIJV5e6KNpx2jERxWFVFlDJKos,RDC Arkitek SDN BHD,4.6,8.0,"['Monday: 9:00\u202fAM\u2009–\u20095:30\u202fPM', 'Tuesday: 9:00\u202fAM\u2009–\u20095:30\u202fPM', 'Wednesday: 9:00\u202fAM\u2009–\u20095:30\u202fPM', 'Thursday: 9:00\u202fAM\u2009–\u20095:30\u202fPM', 'Friday: 9:00\u202fAM\u2009–\u20095:30\u202fPM', 'Saturday: Closed', 'Sunday: Closed']",81100,1.5792624,103.7227563,1.580619879892722,103.7243187298927,1.577920220107278,103.7216190701073
ChIJW5WugVxt2jERQeBMtUt5048,S.SATHEESAN & CO JOHOR BAHRU,5.0,7.0,"['Monday: 9:00\u202fAM\u2009–\u20095:30\u202fPM', 'Tuesday: 9:00\u202fAM\u2009–\u20095:30\u202fPM', 'Wednesday: 9:00\u202fAM\u2009–\u20095:30\u202fPM', 'Thursday: 9:00\u202fAM\u2009–\u20095:30\u202fPM', 'Friday: 9:00\u202fAM\u2009–\u20095:30\u202fPM', 'Saturday: Closed', 'Sunday: Closed']",81100,1.5481864,103.74317,1.549604829892722,103.7445458298927,1.546905170107278,103.7418461701073
ChIJISj30zVv2jERrwjB8-L7bg8,IPG Realty @JB,5.0,10.0,"['Monday: 9:00\u202fAM\u2009–\u20096:00\u202fPM', 'Tuesday: 9:00\u202fAM\u2009–\u20096:00\u202fPM', 'Wednesday: 9:00\u202fAM\u2009–\u20096:00\u202fPM', 'Thursday: 9:00\u202fAM\u2009–\u20096:00\u202fPM', 'Friday: 9:00\u202fAM\u2009–\u20096:00\u202fPM', 'Saturday: Closed', 'Sunday: Closed']",81100,1.5534351,103.7848965,1.554799329892722,103.7862743298927,1.552099670107278,103.7835746701073
ChIJWbqHqRl52jERaRlNP_x3dxo,Durian Project Group Sdn Bhd Johor Branch Office,0.0,0.0,"['Monday: 10:00\u202fAM\u2009–\u20096:00\u202fPM', 'Tuesday: 10:00\u202fAM\u2009–\u20096:00\u202fPM', 'Wednesday: 10:00\u202fAM\u2009–\u20096:00\u202fPM', 'Thursday: 10:00\u202fAM\u2009–\u20096:00\u202fPM', 'Friday: 10:00\u202fAM\u2009–\u20096:00\u202fPM', 'Saturday: 10:00\u202fAM\u2009–\u20096:00\u202fPM', 'Sunday: 10:00\u202fAM\u2009–\u20096:00\u202fPM']",81000,1.669541,103.5812167,1.670895329892722,103.5826723798927,1.668195670107278,103.5799727201073
ChIJwcg_WeFy2jER82R4LJSS7ek,Kitosan Johor,0.0,0.0,"['Monday: Open 24 hours', 'Tuesday: Open 24 hours', 'Wednesday: Open 24 hours', 'Thursday: Open 24 hours', 'Friday: Open 24 hours', 'Saturday: Open 24 hours', 'Sunday: Open 24 hours']",81200,1.5011363,103.6874352,1.502541229892722,103.6887981298927,1.499841570107278,103.6860984701073
ChIJL2HK9UBs0DERapsoBEFai7c,YCL Precision Engineering SDN.BHD,5.0,5.0,"['Monday: 8:00\u202fAM\u2009–\u20096:00\u202fPM', 'Tuesday: 8:00\u202fAM\u2009–\u20096:00\u202fPM', 'Wednesday: 8:00\u202fAM\u2009–\u20096:00\u202fPM', 'Thursday: 8:00\u202fAM\u2009–\u20096:00\u202fPM', 'Friday: 8:00\u202fAM\u2009–\u20096:00\u202fPM', 'Saturday: Closed', 'Sunday: Closed']",86000,2.0316458,103.292582,2.033019779892722,103.2940954798927,2.030320120107278,103.2913958201073
ChIJ6Q5iCj9z2jERi4CjpMaHYnQ,Bujang Holdings Sdn Bhd,0.0,0.0,"['Monday: 8:30\u202fAM\u2009–\u20095:30\u202fPM', 'Tuesday: 8:30\u202fAM\u2009–\u20095:30\u202fPM', 'Wednesday: 8:30\u202fAM\u2009–\u20095:30\u202fPM', 'Thursday: 8:30\u202fAM\u2009–\u20095:30\u202fPM', 'Friday: Closed', 'Saturday: Closed', 'Sunday: 8:30\u202fAM\u2009–\u20095:30\u202fPM']",81200,1.5099564,103.7218415,1.511352729892722,103.7231899298927,1.508653070107278,103.7204902701073
ChIJ4Vza_zlx2jERAk9zr_X-_Is,Ergonomics Excellence Centre,5.0,2.0,"['Monday: 8:00\u202fAM\u2009–\u20095:00\u202fPM', 'Tuesday: 8:00\u202fAM\u2009–\u20095:00\u202fPM', 'Wednesday: 8:00\u202fAM\u2009–\u20095:00\u202fPM', 'Thursday: 8:00\u202fAM\u2009–\u20094:00\u202fPM', 'Friday: Closed', 'Saturday: Closed', 'Sunday: 8:00\u202fAM\u2009–\u20095:00\u202fPM']",81400,1.5765915,103.6478351,1.578114729892722,103.6492985798927,1.575415070107278,103.6465989201073
ChIJPTgIMSpx0DERrIs3dqcjSaQ,Bangunan Dato' Abdul Rahman Andak,0.0,0.0,,86000,1.9930292,103.3610352,1.994350579892722,103.3623765298927,1.991650920107277,103.3596768701073
ChIJV2nAr8QS2jERfvzJGSKf9kE,Koperasi Perbadanan Johor Berhad,5.0,1.0,"['Monday: 8:00\u202fAM\u2009–\u20095:15\u202fPM', 'Tuesday: 8:00\u202fAM\u2009–\u20095:15\u202fPM', 'Wednesday: 8:00\u202fAM\u2009–\u20095:15\u202fPM', 'Thursday: 8:00\u202fAM\u2009–\u20095:15\u202fPM', 'Friday: Closed', 'Saturday: Closed', 'Sunday: 8:00\u202fAM\u2009–\u20095:15\u202fPM']",81100,1.5615705,103.7351029,1.562882479892722,103.7364190298927,1.560182820107278,103.7337193701073
ChIJ3bXkH8xt2jERufNOUeH7tLM,FINAS Johor,0.0,0.0,"['Monday: 8:00\u202fAM\u2009–\u200912:30\u202fPM, 2:00\u2009–\u20094:30\u202fPM', 'Tuesday: 8:00\u202fAM\u2009–\u200912:30\u202fPM, 2:00\u2009–\u20094:30\u202fPM', 'Wednesday: 8:00\u202fAM\u2009–\u200912:30\u202fPM, 2:00\u2009–\u20094:30\u202fPM', 'Thursday: 8:00\u202fAM\u2009–\u200912:30\u202fPM, 2:00\u2009–\u20093:00\u202fPM', 'Friday: Closed', 'Saturday: Closed', 'Sunday: 8:00\u202fAM\u2009–\u200912:30\u202fPM, 2:00\u2009–\u20094:30\u202fPM']",81100,1.5395897,103.769438,1.540909679892722,103.7707977798927,1.538210020107278,103.7680981201073
ChIJX9SbAJFt2jERr9LgKTNbris,DeskNSpace Johor Bahru,0.0,0.0,"['Monday: 9:00\u202fAM\u2009–\u20096:00\u202fPM', 'Tuesday: 9:00\u202fAM\u2009–\u20096:00\u202fPM', 'Wednesday: 9:00\u202fAM\u2009–\u20096:00\u202fPM', 'Thursday: 9:00\u202fAM\u2009–\u20096:00\u202fPM', 'Friday: 9:00\u202fAM\u2009–\u20095:30\u202fPM', 'Saturday: Closed', 'Sunday: Closed']",81100,1.5233787,103.7846743,1.524758429892722,103.7859888798927,1.522058770107278,103.7832892201073
ChIJj45JL65y2jER8lm0WRDBqKQ,Kumpulan Prasarana Rakyat Johor Sdn Bhd(KPRJ),4.0,66.0,"['Monday: 8:30\u202fAM\u2009–\u20095:30\u202fPM', 'Tuesday: 8:30\u202fAM\u2009–\u20095:30\u202fPM', 'Wednesday: 8:30\u202fAM\u2009–\u20095:30\u202fPM', 'Thursday: 8:30\u202fAM\u2009–\u20095:30\u202fPM', 'Friday: Closed', 'Saturday: Closed', 'Sunday: 8:30\u202fAM\u2009–\u20095:30\u202fPM']",79250,1.4241702,103.6158784,1.425546229892722,103.6171430298927,1.422846570107278,103.6144433701073
ChIJN6q9H5lx2jERkK3dKvR3Pbo,Intretech (Malaysia) Sdn Bhd,4.1,72.0,"['Monday: 8:00\u202fAM\u2009–\u20096:00\u202fPM', 'Tuesday: 8:00\u202fAM\u2009–\u20096:00\u202fPM', 'Wednesday: 8:00\u202fAM\u2009–\u20096:00\u202fPM', 'Thursday: 8:00\u202fAM\u2009–\u20096:00\u202fPM', 'Friday: 8:00\u202fAM\u2009–\u20096:00\u202fPM', 'Saturday: Closed', 'Sunday: Closed']",81400,1.5738616,103.6504197,1.5745488,103.6516441298927,1.5718,103.6489444701073
ChIJZxIfP_5r2jER1B9bTkqsSBY,CCL Design Johor,3.0,1.0,,81800,1.5502923,103.8256949,1.551642079892722,103.8270718298927,1.548942420107278,103.8243721701073
ChIJsTm6izZz2jERvj1B0In_6ak,AWH International Logistics Sdn Bhd,5.0,2.0,"['Monday: 9:00\u202fAM\u2009–\u20096:00\u202fPM', 'Tuesday: 9:00\u202fAM\u2009–\u20096:00\u202fPM', 'Wednesday: 9:00\u202fAM\u2009–\u20096:00\u202fPM', 'Thursday: 9:00\u202fAM\u2009–\u20096:00\u202fPM', 'Friday: 9:00\u202fAM\u2009–\u20096:00\u202fPM', 'Saturday: Closed', 'Sunday: Closed']",79250,1.415235,103.6536414,1.416667679892722,103.6549099298927,1.413968020107278,103.6522102701073
ChIJUQatE29x2jERUx6aPApdxDs,AME Elite Consortium Berhad - Industrial Space Solutions Provider in Malaysia,5.0,2.0,"['Monday: 8:30\u202fAM\u2009–\u20095:30\u202fPM', 'Tuesday: 8:30\u202fAM\u2009–\u20095:30\u202fPM', 'Wednesday: 8:30\u202fAM\u2009–\u20095:30\u202fPM', 'Thursday: 8:30\u202fAM\u2009–\u20095:30\u202fPM', 'Friday: 8:30\u202fAM\u2009–\u20095:30\u202fPM', 'Saturday: Closed', 'Sunday: Closed']",81400,1.5961477,103.6772497,1.597496629892722,103.6785985298927,1.594796970107278,103.6758988701073
ChIJKzxmjwoT2jEReu4ZREn-5aE,Pejabat Pilihan Raya Negeri Johor (SPR Malaysia),5.0,3.0,"['Monday: 8:30\u202fAM\u2009–\u20095:00\u202fPM', 'Tuesday: 8:30\u202fAM\u2009–\u20095:00\u202fPM', 'Wednesday: 8:30\u202fAM\u2009–\u20095:00\u202fPM', 'Thursday: 8:30\u202fAM\u2009–\u20093:30\u202fPM', 'Friday: Closed', 'Saturday: Closed', 'Sunday: 8:30\u202fAM\u2009–\u20095:00\u202fPM']",80000,1.460132,103.7589229,1.461494979892722,103.7602796298927,1.458795320107277,103.7575799701073
ChIJmfLv6s512jERrevCkfG-ZK4,JDT Head Quarters,4.7,108.0,"['Monday: Open 24 hours', 'Tuesday: Open 24 hours', 'Wednesday: Open 24 hours', 'Thursday: Open 24 hours', 'Friday: Open 24 hours', 'Saturday: Open 24 hours', 'Sunday: Open 24 hours']",81550,1.4805809,103.619957,1.481928229892722,103.6213026298927,1.479228570107278,103.6186029701073
ChIJ0zPAQXdx2jERL-pcBk0RI6c,Awesome Logistics Sdn Bhd,5.0,1.0,"['Monday: 9:00\u202fAM\u2009–\u20098:00\u202fPM', 'Tuesday: 9:00\u202fAM\u2009–\u20098:00\u202fPM', 'Wednesday: 9:00\u202fAM\u2009–\u20098:00\u202fPM', 'Thursday: 9:00\u202fAM\u2009–\u20098:00\u202fPM', 'Friday: 9:00\u202fAM\u2009–\u20098:00\u202fPM', 'Saturday: 9:00\u202fAM\u2009–\u20093:00\u202fPM', 'Sunday: Closed']",81100,1.5849438,103.7245511,1.586319579892722,103.7259025298927,1.583619920107278,103.7232028701073
ChIJvZqzjdNQ0DERd-VNm2A5iDo,PPHBM Corporation Sdn Bhd,0.0,0.0,,83000,1.8654082,102.9503538,1.866774779892722,102.9516769298927,1.864075120107278,102.9489772701073
ChIJ3QhPnFNx2jERN1whDppF8-0,Pejabat Majlis Perwakilan Pelajar Universiti Teknologi Malaysia,5.0,1.0,"['Monday: 8:00\u202fAM\u2009–\u20095:00\u202fPM', 'Tuesday: 8:00\u202fAM\u2009–\u20095:00\u202fPM', 'Wednesday: 8:00\u202fAM\u2009–\u20095:00\u202fPM', 'Thursday: 8:00\u202fAM\u2009–\u20095:00\u202fPM', 'Friday: Closed', 'Saturday: Closed', 'Sunday: 8:00\u202fAM\u2009–\u20095:00\u202fPM']",81310,1.5593674,103.6410727,1.560732579892722,103.6424060298927,1.558032920107278,103.6397063701073
ChIJ4RcoJtQK2jER0JfL5pnpaJY,Johor Centre for Construction Development (JCCD),4.5,14.0,"['Monday: 8:30\u202fAM\u2009–\u20095:00\u202fPM', 'Tuesday: 8:30\u202fAM\u2009–\u20095:00\u202fPM', 'Wednesday: 8:30\u202fAM\u2009–\u20095:00\u202fPM', 'Thursday: 8:30\u202fAM\u2009–\u20093:00\u202fPM', 'Friday: Closed', 'Saturday: Closed', 'Sunday: 8:30\u202fAM\u2009–\u20095:00\u202fPM']",81550,1.4734801,103.5867398,1.474831179892722,103.5880369798927,1.472131520107278,103.5853373201073
ChIJA_HegaIT2jERPvmTT2CSg-s,Wira Security Services Sdn Bhd (LTA’s Johor Bahru service centre),3.4,136.0,"['Monday: Open 24 hours', 'Tuesday: Open 24 hours', 'Wednesday: Open 24 hours', 'Thursday: Open 24 hours', 'Friday: Open 24 hours', 'Saturday: Open 24 hours', 'Sunday: Open 24 hours']",80300,1.4702138,103.7575423,1.471566679892722,103.7588901298927,1.468867020107278,103.7561904701073
ChIJbZxCvkZs0DER_v0G8mRurJk,Fibon Berhad,4.8,4.0,,邮政编码: 86000,2.0323284,103.2927377,2.033683879892723,103.2941256298927,2.030984220107278,103.2914259701073
ChIJuZ_sJkxx2jERYxWfoJQ_RJY,Ecoscience Technologies Sdn Bhd,4.0,2.0,"['Monday: 8:00\u202fAM\u2009–\u20095:30\u202fPM', 'Tuesday: 8:00\u202fAM\u2009–\u20095:30\u202fPM', 'Wednesday: 8:00\u202fAM\u2009–\u20095:30\u202fPM', 'Thursday: 8:00\u202fAM\u2009–\u20095:30\u202fPM', 'Friday: 8:00\u202fAM\u2009–\u20095:30\u202fPM', 'Saturday: Closed', 'Sunday: Closed']",81100,1.5807805,103.7244477,1.582162829892722,103.7257992298927,1.579463170107278,103.7230995701073
ChIJm3C5nhF52jERRFZlALNDNIo,MTSC SOLUTION (JB) SDN BHD,5.0,2.0,"['Monday: 8:30\u202fAM\u2009–\u20095:30\u202fPM', 'Tuesday: 8:30\u202fAM\u2009–\u20095:30\u202fPM', 'Wednesday: 8:30\u202fAM\u2009–\u20095:30\u202fPM', 'Thursday: 8:30\u202fAM\u2009–\u20095:30\u202fPM', 'Friday: 8:30\u202fAM\u2009–\u20095:30\u202fPM', 'Saturday: Closed', 'Sunday: Closed']",邮政编码: 81000,1.6423772,103.6049656,1.643716879892722,103.6063487798927,1.641017220107278,103.6036491201073
ChIJdXPMPBhv2jERycBwoQ8IbjU,Crest@Austin,3.8,33.0,"['Monday: 8:30\u202fAM\u2009–\u20095:30\u202fPM', 'Tuesday: 8:30\u202fAM\u2009–\u20095:30\u202fPM', 'Wednesday: 8:30\u202fAM\u2009–\u20095:30\u202fPM', 'Thursday: 8:30\u202fAM\u2009–\u20095:30\u202fPM', 'Friday: 8:30\u202fAM\u2009–\u20095:30\u202fPM', 'Saturday: 10:00\u202fAM\u2009–\u20094:00\u202fPM', 'Sunday: 10:00\u202fAM\u2009–\u20094:00\u202fPM']",81100,1.5767973,103.7697785,1.578027879892722,103.7711076298927,1.575328220107278,103.7684079701073
ChIJh2QMnw1t2jERDyKwP_N4P0g,Ttop Industrial & Engineering Sdn. Bhd. (Johor Bahru Branch),5.0,1.0,"['Monday: 8:30\u202fAM\u2009–\u20096:00\u202fPM', 'Tuesday: 8:30\u202fAM\u2009–\u20096:00\u202fPM', 'Wednesday: 8:30\u202fAM\u2009–\u20096:00\u202fPM', 'Thursday: 8:30\u202fAM\u2009–\u20096:00\u202fPM', 'Friday: 8:30\u202fAM\u2009–\u20096:00\u202fPM', 'Saturday: Closed', 'Sunday: Closed']",81300,1.561806,103.717341,1.563203829892722,103.7186901798927,1.560504170107277,103.7159905201073
ChIJkfruuSRy2jER6MmG2Ie6_ok,Epson Precision Johor Sdn Bhd,5.0,1.0,,81200,1.5441582,103.6988149,1.545499129892722,103.7001671798927,1.542799470107278,103.6974675201073
ChIJH2s4HOtz2jERV1UBpMNogL0,Axel Logic Sdn Bhd,0.0,0.0,,81200,1.4789435,103.649846,1.480318279892722,103.6512519798927,1.477618620107278,103.6485523201073
ChIJ5x-htkNz2jER5HvSCfIbTQo,Otak Otak Mr. Noh (Johor Bahru) Sdn Bhd.,4.0,2.0,"['Monday: 9:00\u202fAM\u2009–\u20096:00\u202fPM', 'Tuesday: 9:00\u202fAM\u2009–\u20096:00\u202fPM', 'Wednesday: 9:00\u202fAM\u2009–\u20096:00\u202fPM', 'Thursday: 9:00\u202fAM\u2009–\u20096:00\u202fPM', 'Friday: 9:00\u202fAM\u2009–\u20096:00\u202fPM', 'Saturday: Closed', 'Sunday: Closed']",81300,1.5284006,103.6822689,1.529703779892722,103.6836743798927,1.527004120107278,103.6809747201073
ChIJDykTrvp52jERDyE1UVc5naw,Genting Indahpura sales office,4.0,13.0,"['Monday: 9:00\u202fAM\u2009–\u20096:00\u202fPM', 'Tuesday: 9:00\u202fAM\u2009–\u20096:00\u202fPM', 'Wednesday: 9:00\u202fAM\u2009–\u20096:00\u202fPM', 'Thursday: 9:00\u202fAM\u2009–\u20096:00\u202fPM', 'Friday: 9:00\u202fAM\u2009–\u20096:00\u202fPM', 'Saturday: 9:00\u202fAM\u2009–\u20096:00\u202fPM', 'Sunday: 9:00\u202fAM\u2009–\u20096:00\u202fPM']",81000,1.6377838,103.6252773,1.639143229892722,103.6265309298927,1.636443570107278,103.6238312701073
ChIJfWbRTfxt2jERbLsMolGHrMM,VISKOU TECHNOLOGY SDN BHD-Johor Bahru[Security and Surveillance Distributor-HIKVISION],5.0,2.0,"['Monday: 9:00\u202fAM\u2009–\u20096:00\u202fPM', 'Tuesday: 9:00\u202fAM\u2009–\u20096:00\u202fPM', 'Wednesday: 9:00\u202fAM\u2009–\u20096:00\u202fPM', 'Thursday: 9:00\u202fAM\u2009–\u20096:00\u202fPM', 'Friday: 9:00\u202fAM\u2009–\u20096:00\u202fPM', 'Saturday: 9:00\u202fAM\u2009–\u20091:00\u202fPM', 'Sunday: Closed']",80250,1.4813747,103.7642929,1.482698829892722,103.7657399298927,1.479999170107278,103.7630402701073
ChIJGcM-z7Jt2jERMnejGCYsoBM,"Tebrau G, Technocom System Sdn Bhd",4.5,11.0,"['Monday: 8:00\u202fAM\u2009–\u20096:00\u202fPM', 'Tuesday: 8:00\u202fAM\u2009–\u20096:00\u202fPM', 'Wednesday: 8:00\u202fAM\u2009–\u20096:00\u202fPM', 'Thursday: 8:00\u202fAM\u2009–\u20096:00\u202fPM', 'Friday: 8:00\u202fAM\u2009–\u20096:00\u202fPM', 'Saturday: Closed', 'Sunday: Closed']",81100,1.5307731,103.7362508,1.532021779892722,103.7376210798927,1.529322120107278,103.7349214201073
ChIJJ99IOhVy2jERW6f5eXvYpZ0,Grace Cosmetics Industries GMP Sdn Bhd,5.0,5.0,,81200,1.5347395,103.7076397,1.536057979892722,103.7090115298927,1.533358320107278,103.7063118701073
ChIJqRLcsqpz2jERKN1VOh2dqAU,Quantum Metal Sdn Bhd,4.6,5.0,"['Monday: 9:00\u202fAM\u2009–\u20095:00\u202fPM', 'Tuesday: Closed', 'Wednesday: Closed', 'Thursday: Closed', 'Friday: Closed', 'Saturday: Closed', 'Sunday: Closed']",81200,1.5471023,103.7127276,1.548405429892722,103.7140990798927,1.545705770107278,103.7113994201073
ChIJYdq3OlN52jERffwPVt74ujs,Globaltron-Plc Technologies Sdn Bhd,4.3,6.0,,81000,1.671145,103.5803201,1.672575279892722,103.5817043298927,1.669875620107278,103.5790046701073
ChIJm2A7KdJ32jER3sctEKIYLY8,Innates PLT,5.0,1.0,"['Monday: 8:00\u202fAM\u2009–\u20095:00\u202fPM', 'Tuesday: 8:00\u202fAM\u2009–\u20095:00\u202fPM', 'Wednesday: 8:00\u202fAM\u2009–\u20095:00\u202fPM', 'Thursday: 8:00\u202fAM\u2009–\u20095:00\u202fPM', 'Friday: Closed', 'Saturday: Closed', 'Sunday: 8:00\u202fAM\u2009–\u20095:00\u202fPM']",81300,1.5634762,103.6132329,1.564836979892722,103.6145664298927,1.562137320107278,103.6118667701073
ChIJbcrvdCxbSzARpTYL6W_bCwc,MNY GROUP OF COMPANIES,3.3,4.0,,05200,6.1402429,100.3880682,6.141614029892722,100.3894285298927,6.138914370107278,100.3867288701073
ChIJYT-8EaxbSzARuHpSSCJfFpM,Venture Sdn Bhd,0.0,0.0,,05150,6.1604557,100.3661275,6.161833729892723,100.3674762798927,6.159134070107279,100.3647766201073
ChIJueWHPIdESzARGOKK8RhvIkM,SG Kedah Agency,4.5,2.0,,05400,6.0967667,100.3564896,6.098111779892721,100.3579196298927,6.095412120107278,100.3552199701073
ChIJh9n0LcBbSzARGHpzk4anFa0,KEDA Holdings Sdn Bhd,0.0,0.0,"['Monday: 8:00\u202fAM\u2009–\u20095:00\u202fPM', 'Tuesday: 8:00\u202fAM\u2009–\u20095:00\u202fPM', 'Wednesday: 8:00\u202fAM\u2009–\u20095:00\u202fPM', 'Thursday: 8:00\u202fAM\u2009–\u20095:00\u202fPM', 'Friday: Closed', 'Saturday: Closed', 'Sunday: 8:00\u202fAM\u2009–\u20095:00\u202fPM']",05460,6.149166,100.4125307,6.150288629892722,100.4138430798927,6.147588970107278,100.4111434201073
ChIJj4pwpJBESzARYDiMb28Z85M,IWK - Kedah/Perlis Certifying Agency Office,4.4,9.0,,05300,6.1024126,100.3832731,6.103752129892722,100.3846126798927,6.101052470107279,100.3819130201073
ChIJY2yicJhESzAREx8dMLqOwMw,Magjaya Resources (M) Sdn Bhd,5.0,1.0,"['Monday: 8:30\u202fAM\u2009–\u20096:00\u202fPM', 'Tuesday: 8:30\u202fAM\u2009–\u20096:00\u202fPM', 'Wednesday: 8:30\u202fAM\u2009–\u20096:00\u202fPM', 'Thursday: 8:30\u202fAM\u2009–\u20096:00\u202fPM', 'Friday: 8:30\u202fAM\u2009–\u20096:00\u202fPM', 'Saturday: Closed', 'Sunday: Closed']",05400,6.114179,100.362834,6.115563929892722,100.3641211798927,6.112864270107278,100.3614215201073
ChIJW0s327ZESzAR4-XQFAacqWc,Kumpulan Ladang-Ladang Perbadanan Kedah Sdn. Bhd .,4.8,4.0,"['Monday: 8:00\u202fAM\u2009–\u20095:00\u202fPM', 'Tuesday: 8:00\u202fAM\u2009–\u20095:00\u202fPM', 'Wednesday: 8:00\u202fAM\u2009–\u20095:00\u202fPM', 'Thursday: 8:00\u202fAM\u2009–\u20095:00\u202fPM', 'Friday: Closed', 'Saturday: Closed', 'Sunday: 8:00\u202fAM\u2009–\u20095:00\u202fPM']",05000,6.1298131,100.3663238,6.131144379892723,100.3676713298927,6.128444720107278,100.3649716701073
ChIJ4QdLNxFFSzAR3wfHkf01QKE,KXP AIRPORTCITY HOLDINGS SDN BHD,4.0,5.0,"['Monday: 8:30\u202fAM\u2009–\u20095:30\u202fAM', 'Tuesday: 8:30\u202fAM\u2009–\u20095:30\u202fAM', 'Wednesday: 8:30\u202fAM\u2009–\u20095:30\u202fPM', 'Thursday: 8:30\u202fAM\u2009–\u20094:00\u202fPM', 'Friday: Closed', 'Saturday: Closed', 'Sunday: 8:30\u202fAM\u2009–\u20095:30\u202fAM']",05100,6.1291316,100.3667475,6.130765629892721,100.3681335798927,6.128065970107277,100.3654339201073
ChIJvx_WalRbSzARWUWa4E2dqvo,METROLOGY CORPORATION MALAYSIA SDN. BHD.,3.8,4.0,"['Monday: 8:30\u202fAM\u2009–\u20095:30\u202fPM', 'Tuesday: 8:30\u202fAM\u2009–\u20095:30\u202fPM', 'Wednesday: 8:30\u202fAM\u2009–\u20095:30\u202fPM', 'Thursday: 8:30\u202fAM\u2009–\u20094:00\u202fPM', 'Friday: Closed', 'Saturday: Closed', 'Sunday: 8:30\u202fAM\u2009–\u20095:30\u202fPM']",05150,6.1430604,100.3580909,6.144377429892721,100.3594435298927,6.141677770107277,100.3567438701073
ChIJFUZ6qVNbSzARZDVHmQQPc5U,Konica Minolta Business Solutions (M) Sdn. Bhd.,5.0,3.0,"['Monday: 8:30\u202fAM\u2009–\u20095:30\u202fPM', 'Tuesday: 8:30\u202fAM\u2009–\u20095:30\u202fPM', 'Wednesday: 8:30\u202fAM\u2009–\u20095:30\u202fPM', 'Thursday: 8:30\u202fAM\u2009–\u20095:30\u202fPM', 'Friday: Closed', 'Saturday: Closed', 'Sunday: 8:30\u202fAM\u2009–\u20095:30\u202fPM']",05150,6.139116599999999,100.3576883,6.140447579892722,100.3590735798927,6.137747920107278,100.3563739201073
ChIJFyM2DhtFSzARw4AMNHjASxg,IPK Kedah Tower,4.8,5.0,,05150,6.1303395,100.3725899,6.131916079892723,100.3739526298927,6.129216420107279,100.3712529701073
ChIJicUnGe5dSzARmMPapWSTJbQ,IQ Kedah,5.0,2.0,"['Monday: Open 24 hours', 'Tuesday: Open 24 hours', 'Wednesday: Open 24 hours', 'Thursday: Open 24 hours', 'Friday: Open 24 hours', 'Saturday: Open 24 hours', 'Sunday: Open 24 hours']",06250,6.1401691,100.3362002,6.141545829892723,100.3375655298927,6.138846170107279,100.3348658701073
ChIJ24y1WcBbSzARCAXKpVxEZ4E,ILIASCO CORPORATION SDN BHD,0.0,0.0,,05150,6.1433594,100.3535633,6.144680629892722,100.3549140298927,6.141980970107278,100.3522143701073
ChIJ2Uabo1xDSzARLfsIaD-AGcY,Unique Excel Industries Sdn Bhd,5.0,1.0,,05150,6.120940699999999,100.3396635,6.122301029892722,100.3410447798927,6.119601370107278,100.3383451201073
ChIJfwb4-QtFSzARMkpt5WvV5OY,OIB Group - Property Developer,1.5,4.0,"['Monday: 9:00\u202fAM\u2009–\u20095:30\u202fPM', 'Tuesday: 9:00\u202fAM\u2009–\u20095:30\u202fPM', 'Wednesday: 9:00\u202fAM\u2009–\u20095:30\u202fPM', 'Thursday: 9:00\u202fAM\u2009–\u20095:30\u202fPM', 'Friday: 9:00\u202fAM\u2009–\u20095:30\u202fPM', 'Saturday: 9:00\u202fAM\u2009–\u20095:30\u202fPM', 'Sunday: 9:00\u202fAM\u2009–\u20095:30\u202fPM']",05150,6.1265703,100.3636197,6.127946879892722,100.3649819298927,6.125247220107278,100.3622822701073
ChIJr81W1skkSzARzVuUuvs1u9E,SKM Kedah (Office Space) For Rental,0.0,0.0,,06900,5.796797799999999,100.373039,5.798179379892722,100.3743168798927,5.795479720107278,100.3716172201073
ChIJp3SpZ0RHSzAR2Wca3wpElmg,kingway foods industry co.,3.5,4.0,,06650,6.0374654,100.3815367,6.038856779892721,100.3828706298927,6.036157120107277,100.3801709701073
ChIJGSRowWpFSzARR-LeC4ebSCw,Hup Seng Hoon Yong Brothers Sdn.Bhd. Kedah Branch,4.0,4.0,"['Monday: 8:30\u202fAM\u2009–\u20095:30\u202fPM', 'Tuesday: 8:30\u202fAM\u2009–\u20095:30\u202fPM', 'Wednesday: 8:30\u202fAM\u2009–\u20095:30\u202fPM', 'Thursday: 8:30\u202fAM\u2009–\u20095:30\u202fPM', 'Friday: 8:30\u202fAM\u2009–\u20095:30\u202fPM', 'Saturday: 8:30\u202fAM\u2009–\u20095:30\u202fPM', 'Sunday: Closed']",05150,6.1228478,100.3385084,6.124182679892722,100.3398645798927,6.121483020107278,100.3371649201073
ChIJp5kxRE1bSzARM8Z3HYudo0U,Suncue,0.0,0.0,,05150,6.1374869,100.3619379,6.138864779892722,100.3633071798927,6.136165120107278,100.3606075201073
ChIJO0biptFESzARSb6OMN5tunY,SGM Kedah,4.5,12.0,"['Monday: 9:00\u202fAM\u2009–\u20095:00\u202fPM', 'Tuesday: 9:00\u202fAM\u2009–\u20095:00\u202fPM', 'Wednesday: 9:00\u202fAM\u2009–\u20095:00\u202fPM', 'Thursday: 9:00\u202fAM\u2009–\u20095:00\u202fPM', 'Friday: 9:00\u202fAM\u2009–\u20095:00\u202fPM', 'Saturday: Closed', 'Sunday: 9:00\u202fAM\u2009–\u20095:00\u202fPM']",05460,6.128667600000001,100.3851929,6.130120979892722,100.3865432298927,6.127421320107278,100.3838435701073
ChIJZ0tUhVxDSzARWlWw5hnVzFs,Cityteam Corporation Sdn. Bhd.,5.0,1.0,"['Monday: 9:00\u202fAM\u2009–\u20096:00\u202fPM', 'Tuesday: 9:00\u202fAM\u2009–\u20096:00\u202fPM', 'Wednesday: 9:00\u202fAM\u2009–\u20096:00\u202fPM', 'Thursday: 9:00\u202fAM\u2009–\u20096:00\u202fPM', 'Friday: Closed', 'Saturday: Closed', 'Sunday: 9:00\u202fAM\u2009–\u20096:00\u202fPM']",05150,6.121172500000001,100.3426349,6.122508429892721,100.3439905298927,6.119808770107277,100.3412908701073
ChIJ64NaP_ZFSzARCGjxSLahLVg,Office Areeya Express Co.Ltd Malasia,0.0,0.0,,05400,6.08129,100.361848,6.082649379892721,100.3632370298927,6.079949720107277,100.3605373701073
ChIJ2cOBnrBESzARh5OhfEO0DZM,SenHon Headquarters,0.0,0.0,"['Monday: 9:00\u202fAM\u2009–\u20096:00\u202fPM', 'Tuesday: 9:00\u202fAM\u2009–\u20096:00\u202fPM', 'Wednesday: 9:00\u202fAM\u2009–\u20096:00\u202fPM', 'Thursday: 9:00\u202fAM\u2009–\u20096:00\u202fPM', 'Friday: Closed', 'Saturday: 9:00\u202fAM\u2009–\u20096:00\u202fPM', 'Sunday: 9:00\u202fAM\u2009–\u20096:00\u202fPM']",05100,6.1262935,100.3649259,6.127611729892721,100.3663581798927,6.124912070107277,100.3636585201073
ChIJq6qqGnx_TDARgAPd582a1CQ,Kedah Marble Sdn. Bhd.,0.0,0.0,,07000,6.3186232,99.8508616,6.320016229892722,99.85215747989272,6.317316570107279,99.84945782010728
ChIJwVnWY4xDSzAR8eNyhHhnvKE,Kedahfm,0.0,0.0,,06600,6.096735799999999,100.347786,6.098073679892721,100.3489814798927,6.095374020107277,100.3462818201073
ChIJ28fcjD_XSjARady40S-8lhQ,CNC Paper International Admin Office,5.0,1.0,,08000,5.6179076,100.4754581,5.619334229892721,100.4767914298927,5.616634570107277,100.4740917701073
ChIJoY8HSFZDSzAREux2G5w8nBA,CY Two Thousand Marketing Sdn. Bhd.,3.5,6.0,"['Monday: 10:00\u202fAM\u2009–\u20097:00\u202fPM', 'Tuesday: 10:00\u202fAM\u2009–\u20097:00\u202fPM', 'Wednesday: 10:00\u202fAM\u2009–\u20097:00\u202fPM', 'Thursday: 10:00\u202fAM\u2009–\u20097:00\u202fPM', 'Friday: 10:00\u202fAM\u2009–\u20097:00\u202fPM', 'Saturday: 10:00\u202fAM\u2009–\u20097:00\u202fPM', 'Sunday: Closed']",05150,6.1258864,100.3570011,6.127177129892722,100.3583266298927,6.124477470107278,100.3556269701073
ChIJw_3QhZ5FSzAR3SIvW2Jy6fQ,Dksh Alor Setar,3.5,2.0,,05150,6.1313092,100.3617742,6.132665129892722,100.3631236798927,6.129965470107278,100.3604240201073
ChIJJeZwkUVbSzAR-49ncn1bYEk,"ELYSYLE @ Alor Setar, Kedah",0.0,0.0,,06250,6.1426687,100.3649598,6.144061329892722,100.3663073298927,6.141361670107278,100.3636076701073
ChIJ9T2XaQNJSzAReG2-oJnnDvU,"No.2, hadapan taman sri seberang pendang.06700 pendang, KEDAH",0.0,0.0,"['Monday: 10:00\u202fAM\u2009–\u20097:30\u202fPM', 'Tuesday: 10:00\u202fAM\u2009–\u20097:30\u202fPM', 'Wednesday: 10:00\u202fAM\u2009–\u20097:30\u202fPM', 'Thursday: 10:00\u202fAM\u2009–\u20097:30\u202fPM', 'Friday: 10:00\u202fAM\u2009–\u20097:30\u202fPM', 'Saturday: 10:00\u202fAM\u2009–\u20097:30\u202fPM', 'Sunday: Closed']",06700,5.9975914,100.480088,5.998924979892721,100.4815153798927,5.996225320107277,100.4788157201073
ChIJvUF01IxESzARkOnOlky1Xmk,BDB Infra Sdn. Bhd.,3.9,13.0,"['Monday: 8:30\u202fAM\u2009–\u20095:30\u202fPM', 'Tuesday: 8:30\u202fAM\u2009–\u20095:30\u202fPM', 'Wednesday: 8:30\u202fAM\u2009–\u20095:30\u202fPM', 'Thursday: 8:30\u202fAM\u2009–\u20095:30\u202fPM', 'Friday: Closed', 'Saturday: Closed', 'Sunday: 8:30\u202fAM\u2009–\u20095:30\u202fPM']",05300,6.103184,100.372381,6.104542579892723,100.3737638298927,6.101842920107279,100.3710641701073
ChIJIeP0n2tESzARMi9ZX7AiZ8s,Jafila security sdn. bhd,5.0,2.0,,05400,6.0765481,100.3680247,6.077896579892722,100.3693349798927,6.075196920107278,100.3666353201073
ChIJ60hIXnpESzARpm7tgDnr7rA,HURIX'S,0.0,0.0,"['Monday: 8:00\u202fAM\u2009–\u20095:00\u202fPM', 'Tuesday: 8:00\u202fAM\u2009–\u20095:00\u202fPM', 'Wednesday: 8:00\u202fAM\u2009–\u20095:00\u202fPM', 'Thursday: 8:00\u202fAM\u2009–\u20095:00\u202fPM', 'Friday: 8:00\u202fAM\u2009–\u20095:00\u202fPM', 'Saturday: Closed', 'Sunday: Closed']",05400,6.0838445,100.3543637,6.085236879892722,100.3557899798927,6.082537220107278,100.3530903201073
ChIJnxBbBchESzARMF0JsxvYods,PUNB Cawangan Kedah,0.0,0.0,"['Monday: 8:30\u202fAM\u2009–\u20095:30\u202fPM', 'Tuesday: 8:30\u202fAM\u2009–\u20095:30\u202fPM', 'Wednesday: 8:30\u202fAM\u2009–\u20095:30\u202fPM', 'Thursday: 8:30\u202fAM\u2009–\u20093:30\u202fPM', 'Friday: Closed', 'Saturday: Closed', 'Sunday: 8:30\u202fAM\u2009–\u20095:30\u202fPM']",05000,6.1210004,100.369632,6.122315929892722,100.3710389798927,6.119616270107278,100.3683393201073
ChIJMQ9qhmlESzARN-qzGj_XSF4,LE SANDA COSMETIC SDN. BHD. (HQ),4.3,3.0,"['Monday: 9:00\u202fAM\u2009–\u20096:00\u202fPM', 'Tuesday: 9:00\u202fAM\u2009–\u20096:00\u202fPM', 'Wednesday: 9:00\u202fAM\u2009–\u20096:00\u202fPM', 'Thursday: 9:00\u202fAM\u2009–\u20096:00\u202fPM', 'Friday: Closed', 'Saturday: Closed', 'Sunday: 9:00\u202fAM\u2009–\u20096:00\u202fPM']",05400,6.0793192,100.3698894,6.080677629892723,100.3712392298927,6.077977970107279,100.3685395701073
ChIJh4a6DwFFSzARwr7B-q8EAEI,Medikal Kad Pejawat Awam,0.0,0.0,,05400,6.072108000000001,100.364299,6.073469479892721,100.3656807798927,6.070769820107278,100.3629811201073
ChIJ1T6bo1xDSzARJhQ42_QwKts,Chuan Leong Trading (Kedah) Sdn Bhd,0.0,0.0,,05150,6.1209741,100.3396062,6.122345879892721,100.3410289798927,6.119646220107278,100.3383293201073
ChIJeSKTOLRESzARvrj6mVVzod4,UCM Construction Sdn. Bhd.,4.8,4.0,"['Monday: 8:30\u202fAM\u2009–\u20095:00\u202fPM', 'Tuesday: 8:30\u202fAM\u2009–\u20095:00\u202fPM', 'Wednesday: 8:30\u202fAM\u2009–\u20095:00\u202fPM', 'Thursday: 8:30\u202fAM\u2009–\u20095:00\u202fPM', 'Friday: Closed', 'Saturday: Closed', 'Sunday: 8:30\u202fAM\u2009–\u20095:00\u202fPM']",05000,6.1244876,100.3654252,6.125834329892722,100.3667872298927,6.123134670107278,100.3640875701073
ChIJ685HmmdFSzARTPQJCInSCnk,Easyway Management Services,5.0,1.0,"['Monday: 9:00\u202fAM\u2009–\u20096:00\u202fPM', 'Tuesday: 9:00\u202fAM\u2009–\u20096:00\u202fPM', 'Wednesday: 9:00\u202fAM\u2009–\u20096:00\u202fPM', 'Thursday: 9:00\u202fAM\u2009–\u20096:00\u202fPM', 'Friday: Closed', 'Saturday: Closed', 'Sunday: 9:00\u202fAM\u2009–\u20096:00\u202fPM']",05400,6.095928,100.354643,6.097297629892722,100.3560551298927,6.094597970107277,100.3533554701073
ChIJkSe8DlNFSzAR0PKyVIqJBhk,ABS NETWORK (ABC),0.0,0.0,,05400,6.096318399999999,100.355443,6.097627179892721,100.3567952798927,6.094927520107277,100.3540956201073
ChIJSxBc91hESzAR54tp5HgVHNg,Ajinomoto (M) Bhd (4295-W),2.8,4.0,"['Monday: 8:00\u202fAM\u2009–\u20094:50\u202fPM', 'Tuesday: 8:00\u202fAM\u2009–\u20094:50\u202fPM', 'Wednesday: 8:00\u202fAM\u2009–\u20094:50\u202fPM', 'Thursday: 8:00\u202fAM\u2009–\u20094:50\u202fPM', 'Friday: 8:00\u202fAM\u2009–\u20094:00\u202fPM', 'Saturday: Closed', 'Sunday: Closed']",05400,6.092659299999999,100.3808746,6.094014429892722,100.3821952298927,6.091314770107278,100.3794955701073
ChIJRRQolL5ESzAROLC_liok6QI,Pejabat Kewangan dan Perbendaharaan Negeri Kedah,2.8,5.0,"['Monday: 8:00\u202fAM\u2009–\u20095:00\u202fPM', 'Tuesday: 8:00\u202fAM\u2009–\u20095:00\u202fPM', 'Wednesday: 8:00\u202fAM\u2009–\u20095:00\u202fPM', 'Thursday: 8:00\u202fAM\u2009–\u20093:30\u202fPM', 'Friday: Closed', 'Saturday: Closed', 'Sunday: 8:00\u202fAM\u2009–\u20095:00\u202fPM']",05503,6.146207299999999,100.3724288,6.147557129892722,100.3737786298927,6.144857470107278,100.3710789701073
ChIJz_P-E79ESzARlRyxJohHzgY,GITN Sdn Bhd (Kedah),5.0,1.0,,05200,6.1191542,100.3705561,6.120489779892723,100.3718020298927,6.117790120107279,100.3691023701073
ChIJswaOYd1FSzARTFHsiO66gSk,KYNETICS LAND SDN BHD,0.0,0.0,"['Monday: 9:00\u202fAM\u2009–\u20095:00\u202fPM', 'Tuesday: 9:00\u202fAM\u2009–\u20095:00\u202fPM', 'Wednesday: 9:00\u202fAM\u2009–\u20095:00\u202fPM', 'Thursday: 9:00\u202fAM\u2009–\u20095:00\u202fPM', 'Friday: Closed', 'Saturday: Closed', 'Sunday: 9:00\u202fAM\u2009–\u20095:00\u202fPM']",05150,6.128572999999999,100.3704359,6.129878179892722,100.3717779298927,6.127178520107278,100.3690782701073
ChIJN_y71kdFSzARngDGk3uhAkg,ARM VISION RESOURCES,3.5,6.0,"['Monday: 9:00\u202fAM\u2009–\u20096:30\u202fPM', 'Tuesday: 6:00\u202fAM\u2009–\u20096:30\u202fPM', 'Wednesday: 9:00\u202fAM\u2009–\u20096:30\u202fPM', 'Thursday: 9:00\u202fPM\u2009–\u200912:00\u202fAM', 'Friday: 12:00\u202fAM\u2009–\u20096:30\u202fPM', 'Saturday: 9:00\u202fAM\u2009–\u20096:30\u202fPM', 'Sunday: 9:00\u202fAM\u2009–\u20096:30\u202fPM']",05400,6.0864177,100.3594685,6.087686929892721,100.3607202298927,6.084987270107277,100.3580205701073
ChIJE4yuY79FSzARtkVpJ9sSoMY,Jasaland Property Consultants (K) Sdn. Bhd.,0.0,0.0,,05150,6.1297695,100.3675262,6.131108479892722,100.3689506798927,6.128408820107278,100.3662510201073
ChIJuZViFGs3SzAR55Vf3_KFytE,OFFICE ASP,0.0,0.0,,06700,5.9412215,100.4787957,5.942573829892722,100.4801268298927,5.939874170107278,100.4774271701073
ChIJh-vy0LhESzARujgOBsOJMOs,SADA HQ Alor Setar,3.0,21.0,,05000,6.1214023,100.3698988,6.122689579892721,100.3713497298927,6.119989920107277,100.3686500701073
ChIJqTqlqsM7SzARrfyN9ln_4hs,Ihantaq Fresh HQ,5.0,1.0,,06900,5.863388899999999,100.4265756,5.864817129892721,100.4280961298927,5.862117470107277,100.4253964701073
ChIJp5uRag1DSzAR09FOQDllv4Q,PERKOBF Malaysia Cawangan Kedah,0.0,0.0,,06600,6.102981499999999,100.3488804,6.104331029892721,100.3501959798927,6.101631370107278,100.3474963201073
ChIJHyZgAMdESzARaLvZ0bFpW20,Teguh Harian Build-Tech Sdn. Bhd.,3.9,7.0,"['Monday: 9:00\u202fAM\u2009–\u20096:00\u202fPM', 'Tuesday: 9:00\u202fAM\u2009–\u20096:00\u202fPM', 'Wednesday: 9:00\u202fAM\u2009–\u20096:00\u202fPM', 'Thursday: 9:00\u202fAM\u2009–\u20096:00\u202fPM', 'Friday: Closed', 'Saturday: Closed', 'Sunday: 9:00\u202fAM\u2009–\u20096:00\u202fPM']",05200,6.122636399999999,100.3775272,6.123957779892723,100.3788743298927,6.121258120107278,100.3761746701073
ChIJR6fflsBESzAR-ITswlnJXL4,Yong Heng Giap Sdn. Bhd.,0.0,0.0,,05200,6.119238699999999,100.3729703,6.120582079892722,100.3743462298927,6.117882420107278,100.3716465701073
ChIJDU5dRDBbSzARJCBls9o3fMQ,Persia Corps Sdn. Bhd.,0.0,0.0,,05350,6.1450879,100.3815569,6.146384729892723,100.3829075298927,6.143685070107279,100.3802078701073
ChIJIVtBtFYxSzAR76SYNIR52Mg,"Warehouse 1 (Perlis, Kedah, Penang)",0.0,0.0,,08300,5.8197264,100.4772916,5.821094279892722,100.4787151298927,5.818394620107278,100.4760154701073
ChIJwf1TJR9FSzARFXY9rTGG49k,Khalifah Media Networks,5.0,11.0,"['Monday: 9:00\u202fAM\u2009–\u20096:00\u202fPM', 'Tuesday: 9:00\u202fAM\u2009–\u20096:00\u202fPM', 'Wednesday: 9:00\u202fAM\u2009–\u20096:00\u202fPM', 'Thursday: 9:00\u202fAM\u2009–\u20096:00\u202fPM', 'Friday: Closed', 'Saturday: Closed', 'Sunday: 9:00\u202fAM\u2009–\u20096:00\u202fPM']",06500,6.1512207,100.4091907,6.152516829892721,100.4105357798927,6.149817170107277,100.4078361201073
ChIJ2eUA7YBbSzARnmc3gFBKNHY,Kop Kup Kedah Bhd,0.0,0.0,"['Monday: Closed', 'Tuesday: Closed', 'Wednesday: Closed', 'Thursday: Closed', 'Friday: 9:00\u202fAM\u2009–\u20095:00\u202fPM', 'Saturday: Closed', 'Sunday: Closed']",06200,6.205451,100.4265143,6.206800979892722,100.4278673298927,6.204101320107278,100.4251676701073
ChIJPd_lZD9FSzARw2KN0vLkh4w,BADSA KEDAH MINDEF,0.0,0.0,,05000,6.1220037,100.3673769,6.123287479892721,100.3688367298927,6.120587820107277,100.3661370701073
ChIJgVVJZFNFSzARstEd8zM6tGM,Persatuan Kang Har Tong (Ooi Si Chong Soo) Kedah/Perlis,0.0,0.0,,05150,6.123713899999999,100.3566345,6.124994279892722,100.3580744298927,6.122294620107279,100.3553747701073
ChIJW5vyTU5bSzAR1WAkTcjH5y4,PERSATUAN KONTRAKTOR MELAYU MALAYSIA NEGERI KEDAH (PKMM Negeri Kedah),4.8,5.0,"['Monday: 9:00\u202fAM\u2009–\u20095:00\u202fPM', 'Tuesday: 9:00\u202fAM\u2009–\u20095:00\u202fPM', 'Wednesday: 9:00\u202fAM\u2009–\u20095:00\u202fPM', 'Thursday: 9:00\u202fAM\u2009–\u20095:00\u202fPM', 'Friday: Closed', 'Saturday: Closed', 'Sunday: 9:00\u202fAM\u2009–\u20095:00\u202fPM']",05150,6.144069699999999,100.3630121,6.145421479892722,100.3643935298927,6.142721820107278,100.3616938701073
ChIJq1tN5h0zSzARzTAb3RKLwtc,Hock Chuan Enterprise Sdn. Bhd.,3.0,3.0,,08300,5.8537843,100.5503772,5.855138479892722,100.5516956798927,5.852438820107278,100.5489960201073
ChIJt-Ltjn6vtjERJKdav9snyN8,Benyuan Sdn. Bhd. (Vivo Kelantan office),0.0,0.0,"['Monday: 9:30\u202fAM\u2009–\u20096:00\u202fPM', 'Tuesday: 9:30\u202fAM\u2009–\u20096:00\u202fPM', 'Wednesday: 9:30\u202fAM\u2009–\u20096:00\u202fPM', 'Thursday: 9:30\u202fAM\u2009–\u20096:00\u202fPM', 'Friday: Closed', 'Saturday: Closed', 'Sunday: 9:30\u202fAM\u2009–\u20096:00\u202fPM']",15400,6.1272991,102.2449243,6.128711479892723,102.2462769298927,6.126011820107279,102.2435772701073
ChIJZcd_AkOltjER2BajkVP_maE,PHARMANIAGA Sales Office Kelantan.,5.0,2.0,"['Monday: 8:30\u202fAM\u2009–\u20095:30\u202fPM', 'Tuesday: 8:30\u202fAM\u2009–\u20095:30\u202fPM', 'Wednesday: 8:30\u202fAM\u2009–\u20095:30\u202fPM', 'Thursday: 8:30\u202fAM\u2009–\u20095:30\u202fPM', 'Friday: Closed', 'Saturday: 8:30\u202fAM\u2009–\u20095:30\u202fPM', 'Sunday: 8:30\u202fAM\u2009–\u20095:30\u202fPM']",15100,6.073343299999999,102.2367258,6.074770429892721,102.2380745798927,6.072070770107278,102.2353749201073
ChIJgTjJJB67tjERYHZ7NW6cHYY,Harvest Group Training Centre - Kelantan,0.0,0.0,,16150,6.053801099999999,102.2815543,6.055155779892721,102.2829345298927,6.052456120107277,102.2802348701073
ChIJe0dkn1ixtjERszXSZEU5KfM,Desa Southern Agency ( Kelantan ) Sdn Bhd,0.0,0.0,"['Monday: 8:30\u202fAM\u2009–\u20095:30\u202fPM', 'Tuesday: 8:30\u202fAM\u2009–\u20095:30\u202fPM', 'Wednesday: 8:30\u202fAM\u2009–\u20095:30\u202fPM', 'Thursday: 8:30\u202fAM\u2009–\u20095:30\u202fPM', 'Friday: Closed', 'Saturday: 8:30\u202fAM\u2009–\u20095:30\u202fPM', 'Sunday: 8:30\u202fAM\u2009–\u20095:30\u202fPM']",16100,6.139764899999999,102.3045913,6.141092129892722,102.3059604798927,6.138392470107278,102.3032608201073
ChIJ063QSpoftDERDqipeGkky9g,ECERDC Kelantan Regional Office,0.0,0.0,"['Monday: 8:00\u202fAM\u2009–\u20095:00\u202fPM', 'Tuesday: 8:00\u202fAM\u2009–\u20095:00\u202fPM', 'Wednesday: 8:00\u202fAM\u2009–\u20095:00\u202fPM', 'Thursday: 8:00\u202fAM\u2009–\u20095:00\u202fPM', 'Friday: Closed', 'Saturday: Closed', 'Sunday: 8:00\u202fAM\u2009–\u20095:00\u202fPM']",17000,5.9987045,102.0561129,6.000055729892722,102.0573564298927,5.997356070107278,102.0546567701073
ChIJw4P7qu2htjERcx_OC6-BHwY,HELOGANG STATE OFFICE KELANTAN,0.0,0.0,"['Monday: 8:30\u202fAM\u2009–\u20095:30\u202fPM', 'Tuesday: 8:30\u202fAM\u2009–\u20095:30\u202fPM', 'Wednesday: 8:30\u202fAM\u2009–\u20095:30\u202fPM', 'Thursday: 8:30\u202fAM\u2009–\u20095:30\u202fPM', 'Friday: Closed', 'Saturday: Closed', 'Sunday: 8:30\u202fAM\u2009–\u20095:30\u202fPM']",17200,5.979966699999999,102.08924,5.981309979892721,102.0905869298927,5.978610320107277,102.0878872701073
ChIJmbPhNngFtjERo6waDXkbB20,Office Ladang Serasa SDN BHD,5.0,2.0,,18300,5.1080437,102.1732904,5.109362929892722,102.1746607298927,5.106663270107278,102.1719610701073
ChIJm1czjNuvtjERNu12to4Ta50,"Bukti Megah Sdn Bhd, Kelantan Branch",0.0,0.0,,15200,6.123164099999999,102.2472881,6.124514179892722,102.2486396298927,6.121814520107278,102.2459399701073
ChIJu8sDYgSwtjERybVM-d1gAdA,INVOKE Kelantan,3.0,2.0,,15200,6.104174,102.261581,6.105457379892722,102.2628705798927,6.102757720107278,102.2601709201073
ChIJwxz7p7KvtjERDPp-N9ccV5s,Perbadanan Produktiviti Malaysia Pejabat Negeri Kelantan,5.0,1.0,"['Monday: 8:00\u202fAM\u2009–\u20095:00\u202fPM', 'Tuesday: 8:00\u202fAM\u2009–\u20095:00\u202fPM', 'Wednesday: 8:00\u202fAM\u2009–\u20095:00\u202fPM', 'Thursday: 8:00\u202fAM\u2009–\u20095:00\u202fPM', 'Friday: Closed', 'Saturday: Closed', 'Sunday: 8:00\u202fAM\u2009–\u20095:00\u202fPM']",15050,6.1088588,102.2391272,6.110318879892721,102.2404728798927,6.107619220107277,102.2377732201073
ChIJcV0-ccebtjER9BVoqLFl47A,Muby Group Of Companies,0.0,0.0,"['Monday: 9:00\u202fAM\u2009–\u20096:00\u202fPM', 'Tuesday: 9:00\u202fAM\u2009–\u20096:00\u202fPM', 'Wednesday: 9:00\u202fAM\u2009–\u20096:00\u202fPM', 'Thursday: 9:00\u202fAM\u2009–\u20096:00\u202fPM', 'Friday: Closed', 'Saturday: Closed', 'Sunday: 9:00\u202fAM\u2009–\u20096:00\u202fPM']",18500,5.7780743,102.1958532,5.779426029892723,102.1971097298927,5.776726370107279,102.1944100701073
ChIJIU_Bw-3rtjERoM5OdjAnJcQ,Agensi Penguatkuasaan Maritim Malaysia (Negeri Kelantan),0.0,0.0,"['Monday: 8:00\u202fAM\u2009–\u20095:00\u202fPM', 'Tuesday: 8:00\u202fAM\u2009–\u20095:00\u202fPM', 'Wednesday: 8:00\u202fAM\u2009–\u20095:00\u202fPM', 'Thursday: 8:00\u202fAM\u2009–\u20095:00\u202fPM', 'Friday: Closed', 'Saturday: Closed', 'Sunday: 8:00\u202fAM\u2009–\u20095:00\u202fPM']",16800,5.8854807,102.4697128,5.886751879892721,102.4711091798927,5.884052220107277,102.4684095201073
ChIJlaohdGOvtjERB6DG3KnmRsY,BIGHILL GROUP STOKIS NEGERI KELANTAN,0.0,0.0,,15200,6.115310099999999,102.2483554,6.116596629892722,102.2496473798927,6.113896970107279,102.2469477201073
ChIJef912cintjERT1hYEaMILcg,APPECUT KELANTAN HQ,0.0,0.0,"['Monday: Open 24 hours', 'Tuesday: Open 24 hours', 'Wednesday: Open 24 hours', 'Thursday: Open 24 hours', 'Friday: Open 24 hours', 'Saturday: Open 24 hours', 'Sunday: Open 24 hours']",17000,6.032117599999999,102.1329203,6.033499779892722,102.1343752798927,6.030800120107278,102.1316756201073
ChIJ53Sv22ixtjERL9tulopLHcs,Sime Darby Industrial Sdn Bhd (Tractors Malaysia) Kota Bharu,4.4,5.0,"['Monday: 8:30\u202fAM\u2009–\u20095:30\u202fPM', 'Tuesday: 8:30\u202fAM\u2009–\u20095:30\u202fPM', 'Wednesday: 8:30\u202fAM\u2009–\u20095:30\u202fPM', 'Thursday: 8:30\u202fAM\u2009–\u20095:30\u202fPM', 'Friday: Closed', 'Saturday: Closed', 'Sunday: 8:30\u202fAM\u2009–\u20095:30\u202fPM']",16100,6.1385707,102.3021964,6.140039929892722,102.3034528298927,6.137340270107278,102.3007531701073
ChIJF9Qz_kSvtjEROwaXTqYOC9c,NU Vending Sdn Bhd (Kelantan Branch) - Vending Machine Supplier,0.0,0.0,"['Monday: 9:00\u202fAM\u2009–\u20096:00\u202fPM', 'Tuesday: 9:00\u202fAM\u2009–\u20096:00\u202fPM', 'Wednesday: 9:00\u202fAM\u2009–\u20096:00\u202fPM', 'Thursday: 9:00\u202fAM\u2009–\u20096:00\u202fPM', 'Friday: Closed', 'Saturday: Closed', 'Sunday: 9:00\u202fAM\u2009–\u20096:00\u202fPM']",15050,6.116497499999999,102.2384208,6.117863029892721,102.2397750298927,6.115163370107277,102.2370753701073
ChIJk2s6ZOGvtjERZ9WoZxBLC8I,ForLife Research Kota Bharu,4.0,1.0,"['Monday: 12:00\u2009–\u20098:00\u202fPM', 'Tuesday: 12:00\u2009–\u20098:00\u202fPM', 'Wednesday: 12:00\u2009–\u20098:00\u202fPM', 'Thursday: 12:00\u2009–\u20098:00\u202fPM', 'Friday: 12:00\u2009–\u20098:00\u202fPM', 'Saturday: 10:00\u202fAM\u2009–\u20094:00\u202fPM', 'Sunday: Closed']",15200,6.112651199999999,102.2509183,6.11400102989272,102.2522681298927,6.111301370107276,102.2495684701073
ChIJpYVHx6p7tjERuGf9HKBpmgc,SEKRETARIAT MALAYSIA PRIHATIN CAWANGAN KELANTAN,0.0,0.0,,18000,5.5026674,102.2221194,5.504018179892722,102.2234782798927,5.501318520107279,102.2207786201073
ChIJM4llqCaltjERZp0PE4cYk9o,Kraftangan Malaysia Cawangan Kelantan,4.2,9.0,"['Monday: 9:00\u202fAM\u2009–\u20095:00\u202fPM', 'Tuesday: 9:00\u202fAM\u2009–\u20095:00\u202fPM', 'Wednesday: 9:00\u202fAM\u2009–\u20095:00\u202fPM', 'Thursday: 9:00\u202fAM\u2009–\u20095:00\u202fPM', 'Friday: Closed', 'Saturday: Closed', 'Sunday: 9:00\u202fAM\u2009–\u20095:00\u202fPM']",16010,6.052318199999999,102.2380963,6.053668129892721,102.2394934298927,6.050968470107277,102.2367937701073
ChIJU4aicXqxtjERLqKOOFd22ys,Dataprep (M) Sdn Bhd Kota Bharu,0.0,0.0,"['Monday: 8:30\u202fAM\u2009–\u20095:30\u202fAM', 'Tuesday: 8:30\u202fAM\u2009–\u20095:30\u202fAM', 'Wednesday: 8:30\u202fAM\u2009–\u20095:30\u202fAM', 'Thursday: 8:30\u202fAM\u2009–\u20095:30\u202fAM', 'Friday: Closed', 'Saturday: Closed', 'Sunday: 8:30\u202fAM\u2009–\u20095:30\u202fAM']",15200,6.118246,102.2618715,6.119663579892721,102.2632340798927,6.116963920107278,102.2605344201073
ChIJR6oihV-xtjERdq37k6wfdKk,PAAB Kelantan,0.0,0.0,,16100,6.1465096,102.2679971,6.147832929892722,102.2693449298927,6.145133270107278,102.2666452701073
ChIJgylkIHqTtjEROI6q1ToS3LE,Rnd Agro World Berhad - Cawangan Kelantan,5.0,1.0,,16800,5.7802907,102.4185394,5.781653629892721,102.4198851798927,5.778953970107278,102.4171855201073
ChIJL1DiZe-vtjERr2z8mHsDJfE,JKR Negeri Kelantan,4.5,2.0,"['Monday: 8:00\u202fAM\u2009–\u20095:00\u202fPM', 'Tuesday: 8:00\u202fAM\u2009–\u20095:00\u202fPM', 'Wednesday: 8:00\u202fAM\u2009–\u20095:00\u202fPM', 'Thursday: 8:00\u202fAM\u2009–\u20095:00\u202fPM', 'Friday: Closed', 'Saturday: Closed', 'Sunday: 8:00\u202fAM\u2009–\u20095:00\u202fPM']",15050,6.1104476,102.2421242,6.111709829892721,102.2434670798927,6.109010170107277,102.2407674201073
ChIJ4Q918DultjERXM4Ol20zbb8,AJ Business Centre Kelantan,4.0,2.0,,43000,6.0703138,102.2382435,6.071663579892721,102.2395919798927,6.068963920107277,102.2368923201073
ChIJs7Xtx24EyjERRHtoyKYKxjc,Conlay Site Office Gua Musang,3.0,2.0,"['Monday: 9:00\u202fAM\u2009–\u20096:00\u202fPM', 'Tuesday: 9:00\u202fAM\u2009–\u20096:00\u202fPM', 'Wednesday: 9:00\u202fAM\u2009–\u20096:00\u202fPM', 'Thursday: 9:00\u202fAM\u2009–\u20096:00\u202fPM', 'Friday: Closed', 'Saturday: 9:00\u202fAM\u2009–\u20096:00\u202fPM', 'Sunday: 9:00\u202fAM\u2009–\u20096:00\u202fPM']",18300,4.8423317,101.9641251,4.843702479892722,101.9654042298927,4.841002820107278,101.9627045701073
ChIJzcqGlg6ltjERyXwjLeBPhfE,APPECUT KOTA BHARU,3.0,1.0,"['Monday: 8:00\u202fAM\u2009–\u20096:00\u202fPM', 'Tuesday: 8:00\u202fAM\u2009–\u20096:00\u202fPM', 'Wednesday: 8:00\u202fAM\u2009–\u20096:00\u202fPM', 'Thursday: 8:00\u202fAM\u2009–\u20096:00\u202fPM', 'Friday: Closed', 'Saturday: 8:00\u202fAM\u2009–\u20096:00\u202fPM', 'Sunday: 8:00\u202fAM\u2009–\u20096:00\u202fPM']",15150,6.0799794,102.2434574,6.081340429892722,102.2448258798927,6.078640770107278,102.2421262201073
ChIJCVg5izbetTERimHBKW3bLk4,Kompleks Perkayuan Kelantan Sdn. Bhd.,4.0,2.0,"['Monday: 8:15\u202fAM\u2009–\u20095:00\u202fPM', 'Tuesday: 8:15\u202fAM\u2009–\u20095:00\u202fPM', 'Wednesday: 8:15\u202fAM\u2009–\u20095:00\u202fPM', 'Thursday: 8:15\u202fAM\u2009–\u20095:00\u202fPM', 'Friday: Closed', 'Saturday: Closed', 'Sunday: 8:15\u202fAM\u2009–\u20095:00\u202fPM']",18200,5.3059694,101.9918873,5.307168479892722,101.9933541298927,5.304468820107278,101.9906544701073
ChIJ1ev_vLzrtjERD78s4kjYH2U,IBU PEJABAT MARITIM NEGERI KELANTAN,3.0,2.0,,16800,5.885545899999999,102.4701516,5.886902329892722,102.4714988298927,5.884202670107278,102.4687991701073
ChIJq5A93tCvtjERUIopf-6AYSo,IDS Medical Systems - Kota Bharu,0.0,0.0,"['Monday: 8:00\u202fAM\u2009–\u20095:00\u202fPM', 'Tuesday: 8:00\u202fAM\u2009–\u20095:00\u202fPM', 'Wednesday: 8:00\u202fAM\u2009–\u20095:00\u202fPM', 'Thursday: 8:00\u202fAM\u2009–\u20095:00\u202fPM', 'Friday: Closed', 'Saturday: 8:00\u202fAM\u2009–\u20095:00\u202fPM', 'Sunday: 8:00\u202fAM\u2009–\u20095:00\u202fPM']",15300,6.130758000000001,102.2479813,6.132153029892722,102.2493188798927,6.129453370107278,102.2466192201073
ChIJt3R4aSavtjERR6ig0FjdPrE,Kelantan Teo Chew Association,0.0,0.0,,15050,6.1165932,102.2395977,6.117965129892721,102.2409476298927,6.115265470107278,102.2382479701073
ChIJe8YV62mltjER9AEiPKu_w9A,KUWAK - Kelab Usahawan Wanita Kelantan,3.3,4.0,"['Monday: 9:00\u202fAM\u2009–\u20095:00\u202fPM', 'Tuesday: 9:00\u202fAM\u2009–\u20095:00\u202fPM', 'Wednesday: 9:00\u202fAM\u2009–\u20095:00\u202fPM', 'Thursday: 9:00\u202fAM\u2009–\u20095:00\u202fPM', 'Friday: Closed', 'Saturday: Closed', 'Sunday: 9:00\u202fAM\u2009–\u20095:00\u202fPM']",15100,6.082595599999999,102.2305717,6.083968179892723,102.2318865798927,6.081268520107279,102.2291869201073
ChIJl0z6QTEHyjERufJmM3NP990,Syarikat Ladang Sungai Terah (HQ),4.5,2.0,,18300,4.9495586,101.9632674,4.950793679892723,101.9646743798927,4.948094020107279,101.9619747201073
ChIJ5W009MWvtjER--vJoBtcYug,Cellmaxx Malaysia Kota Bharu,0.0,0.0,"['Monday: 8:00\u202fAM\u2009–\u200911:55\u202fPM', 'Tuesday: 8:00\u202fAM\u2009–\u200911:55\u202fPM', 'Wednesday: 8:00\u202fAM\u2009–\u200911:55\u202fPM', 'Thursday: 8:00\u202fAM\u2009–\u200911:55\u202fPM', 'Friday: 8:00\u202fAM\u2009–\u200911:55\u202fPM', 'Saturday: 8:00\u202fAM\u2009–\u200911:55\u202fPM', 'Sunday: 8:00\u202fAM\u2009–\u200911:55\u202fPM']",15000,6.1278929,102.238769,6.129242729892722,102.2401188298927,6.126543070107278,102.2374191701073
ChIJwcsd2vejtjER5UqWOzH3ys4,Elite Team Management,2.8,5.0,"['Monday: 9:00\u202fAM\u2009–\u20095:00\u202fPM', 'Tuesday: 9:00\u202fAM\u2009–\u20095:00\u202fPM', 'Wednesday: 9:00\u202fAM\u2009–\u20095:00\u202fPM', 'Thursday: 9:00\u202fAM\u2009–\u20095:00\u202fPM', 'Friday: Closed', 'Saturday: Closed', 'Sunday: 9:00\u202fAM\u2009–\u20095:00\u202fPM']",16450,5.9435524,102.2466552,5.944878379892722,102.2480992298927,5.942178720107278,102.2453995701073
ChIJzyXyOi2wtjERcZgZD3Ys_PQ,Kelantan Bar Committee,3.6,5.0,"['Monday: 9:00\u202fAM\u2009–\u20095:00\u202fPM', 'Tuesday: 9:00\u202fAM\u2009–\u20095:00\u202fPM', 'Wednesday: 9:00\u202fAM\u2009–\u20095:00\u202fPM', 'Thursday: 9:00\u202fAM\u2009–\u20095:00\u202fPM', 'Friday: Closed', 'Saturday: Closed', 'Sunday: 9:00\u202fAM\u2009–\u20095:00\u202fPM']",15400,6.1380769,102.2645506,6.139401079892722,102.2659769798927,6.136701420107278,102.2632773201073
ChIJR9JLeJ2vtjERF7W1qEVuRTY,Pejabat Pertubuhan Pendidik Kelantan,0.0,0.0,,16210,6.107075,102.2121242,6.108443479892721,102.2134622298927,6.105743820107278,102.2107625701073
ChIJlx2-zEKxtjERTqX2jWFMAn4,Pertubuhan Silat Seni Gayong Malaysia Negeri Kelantan,0.0,0.0,,15200,6.104079599999999,102.2616909,6.105366179892722,102.2629891298927,6.102666520107278,102.2602894701073
ChIJmx3IaVWvtjERicbaqqx6dPM,Pekembar Kota Bharu Sdn Bhd,0.0,0.0,,15000,6.1299137,102.235741,6.131295679892722,102.2370945798927,6.128596020107278,102.2343949201073
ChIJ0ZsLbTyltjERhnwHXOsJYRY,Aman Palestin caw Kelantan,4.8,8.0,"['Monday: 9:00\u202fAM\u2009–\u20095:30\u202fPM', 'Tuesday: 9:00\u202fAM\u2009–\u20095:30\u202fPM', 'Wednesday: 9:00\u202fAM\u2009–\u20095:30\u202fPM', 'Thursday: 9:00\u202fAM\u2009–\u20095:30\u202fPM', 'Friday: Closed', 'Saturday: Closed', 'Sunday: 9:00\u202fAM\u2009–\u20095:30\u202fPM']",16010,6.0695596,102.2368084,6.070965929892722,102.2381571298927,6.068266270107278,102.2354574701073
ChIJ9VEBn_WvtjERSgBoCYne3BE,Pejabat SUK Kelantan,2.5,8.0,,15050,6.111727,102.2402986,6.112997279892722,102.2416495798927,6.110297620107279,102.2389499201073
ChIJJba1msyvtjERkh1ZDozRe4U,PERSATUAN MUSLIM INDIA KELANTAN (KIMA),4.0,1.0,,15200,6.1190223,102.2420871,6.120404329892721,102.2434906298927,6.117704670107277,102.2407909701073
ChIJ56nlAFuxtjER-RFKQ2iwUNw,Fadlim Travel & Tours Kelantan,5.0,1.0,,15200,6.1058997,102.2812159,6.107228429892723,102.2825416298927,6.104528770107279,102.2798419701073
ChIJWbGnsykgtjERCjvPgBD3aEE,Pejabat FGVPM Aring 8,3.0,1.0,,18300,4.974896,102.4399764,4.976310879892722,102.4412923298927,4.973611220107278,102.4385926701073
ChIJQ4opOy6vtjERa9bPcLH1x_A,Simply Umrah Kelantan,2.5,2.0,"['Monday: 9:30\u202fAM\u2009–\u20095:00\u202fPM', 'Tuesday: 9:30\u202fAM\u2009–\u20095:00\u202fPM', 'Wednesday: 9:30\u202fAM\u2009–\u20095:00\u202fPM', 'Thursday: 9:30\u202fAM\u2009–\u20095:00\u202fPM', 'Friday: 9:30\u202fAM\u2009–\u20095:00\u202fPM', 'Saturday: 9:30\u202fAM\u2009–\u20095:00\u202fPM', 'Sunday: 9:30\u202fAM\u2009–\u20095:00\u202fPM']",15200,6.113875699999999,102.2517452,6.115216929892722,102.2531815298927,6.112517270107278,102.2504818701073
ChIJMTyp1HoLyjER0MAuyBhRU2s,Hevea KB S.B. Kuala Betis Plantation,0.0,0.0,,18300,4.8809739,101.741024,4.882349629892722,101.7423816298927,4.879649970107278,101.7396819701073
ChIJB3rluqw6tDER4nUdYAWpUsA,Amalfood Industri Sdn. Bhd.,0.0,0.0,,17700,5.7789844,101.8883228,5.780147379892722,101.8896719798927,5.777447720107278,101.8869723201073
ChIJ6br5vSKwtjERA9EtW72zABQ,Tiang Longkang Kalboard Semin Kota Bharu,0.0,0.0,"['Monday: 8:30\u202fAM\u2009–\u20096:30\u202fPM', 'Tuesday: 8:30\u202fAM\u2009–\u20096:30\u202fPM', 'Wednesday: 8:30\u202fAM\u2009–\u20096:30\u202fPM', 'Thursday: 8:30\u202fAM\u2009–\u20096:30\u202fPM', 'Friday: Closed', 'Saturday: 8:30\u202fAM\u2009–\u20096:30\u202fPM', 'Sunday: 8:30\u202fAM\u2009–\u20096:30\u202fPM']",15200,6.117979999999999,102.264836,6.119294079892722,102.2661843298927,6.116594420107278,102.2634846701073
ChIJ03sPl4avtjERlNRJ9K-aqc8,Persatuan Kontraktor Melayu Kelantan,0.0,0.0,,15200,6.124866300000001,102.248816,6.126132029892722,102.2501628798927,6.123432370107278,102.2474632201073
ChIJXXGqEomctjERNqAsVEJuFF4,JC Kelantan Training Centre,0.0,0.0,,17500,5.8056345,102.1475647,5.807048729892722,102.1489189798927,5.804349070107278,102.1462193201073
ChIJp4zCR3CHtjERbGQAwZUrcME,Lot 2647 Jalan Bukit Sireh Kuala Krai Kelantan,4.0,1.0,,18000,5.6115581,102.1924342,5.612899329892722,102.1938130798927,5.610199670107278,102.1911134201073
ChIJbwGYpBudtjERFJw6dJTaNLE,T.Forest Products Holdings Sdn Bhd,1.0,2.0,"['Monday: 9:00\u202fAM\u2009–\u20095:00\u202fPM', 'Tuesday: 9:00\u202fAM\u2009–\u20095:00\u202fPM', 'Wednesday: 9:00\u202fAM\u2009–\u20095:00\u202fPM', 'Thursday: 9:00\u202fAM\u2009–\u20095:00\u202fPM', 'Friday: Closed', 'Saturday: 9:00\u202fAM\u2009–\u20095:00\u202fPM', 'Sunday: 9:00\u202fAM\u2009–\u20095:00\u202fPM']",17500,5.8241384,102.1496848,5.825510929892721,102.1508472298927,5.822811270107278,102.1481475701073
ChIJq_1sZyWltjERB95vr3q7EaQ,Koperasi Kakitangan dan Keluarga Air Kelantan Bhd,1.0,1.0,"['Monday: 8:30\u202fAM\u2009–\u20095:30\u202fPM', 'Tuesday: 8:30\u202fAM\u2009–\u20095:30\u202fPM', 'Wednesday: 8:30\u202fAM\u2009–\u20095:30\u202fPM', 'Thursday: 8:30\u202fAM\u2009–\u20095:30\u202fPM', 'Friday: Closed', 'Saturday: Closed', 'Sunday: 8:30\u202fAM\u2009–\u20095:30\u202fPM']",15100,6.0708801,102.2374801,6.072227879892723,102.2388716798927,6.069528220107279,102.2361720201073
ChIJC7HDK7CvtjERBkxCtAuyXnI,MAKMAL PUSAT AIR KELANTAN,0.0,0.0,"['Monday: 8:00\u202fAM\u2009–\u20095:00\u202fPM', 'Tuesday: 8:00\u202fAM\u2009–\u20095:00\u202fPM', 'Wednesday: 8:00\u202fAM\u2009–\u20095:00\u202fPM', 'Thursday: 8:00\u202fAM\u2009–\u20094:30\u202fPM', 'Friday: Closed', 'Saturday: Closed', 'Sunday: 8:00\u202fAM\u2009–\u20095:00\u202fPM']",15150,6.113293199999999,102.2422987,6.114650179892721,102.2436309298927,6.111950520107277,102.2409312701073
ChIJ9Q43r9-atjERxZqoRqWB6MI,WISMA IDRA Machang Kelantan.,4.5,2.0,,18500,5.7848405,102.2113265,5.786180479892722,102.2128306298927,5.783480820107278,102.2101309701073
ChIJL5E0mualtjERndK34eYQg5c,Tadika Usahawan Kelantan,5.0,1.0,,16450,6.025009,102.2520937,6.026520679892722,102.2534907298927,6.023821020107278,102.2507910701073
ChIJG7JU8cOvtjERywFYrZnHXw0,Koperasi Guru Guru Muslim Kelantan Berhad,0.0,0.0,"['Monday: 9:00\u202fAM\u2009–\u20095:00\u202fPM', 'Tuesday: 9:00\u202fAM\u2009–\u20095:00\u202fPM', 'Wednesday: 9:00\u202fAM\u2009–\u20095:00\u202fPM', 'Thursday: 9:00\u202fAM\u2009–\u20095:00\u202fPM', 'Friday: Closed', 'Saturday: Closed', 'Sunday: 9:00\u202fAM\u2009–\u20095:00\u202fPM']",15000,6.1291763,102.2357675,6.130594729892722,102.2371302798927,6.127895070107278,102.2344306201073
ChIJIW4RHmultjERczBs5An7_5o,Pejabat Pembangunan Negeri Kelantan (ICU JPM),4.3,31.0,"['Monday: 8:00\u202fAM\u2009–\u20095:00\u202fPM', 'Tuesday: 8:00\u202fAM\u2009–\u20095:00\u202fPM', 'Wednesday: 8:00\u202fAM\u2009–\u20095:00\u202fPM', 'Thursday: 8:00\u202fAM\u2009–\u20093:00\u202fPM', 'Friday: Closed', 'Saturday: Closed', 'Sunday: 8:00\u202fAM\u2009–\u20095:00\u202fPM']",15100,6.070524799999999,102.2317383,6.071992529892722,102.2331369798927,6.069292870107278,102.2304373201073
ChIJdR4XlbCctjERvv0MCsbMVOA,Muqmeen GROUP,5.0,1.0,,17500,5.7766664,102.1476727,5.778045429892722,102.1490271298927,5.775345770107278,102.1463274701073
ChIJf4N6deYFyjERxlv067hW9J0,Acan,5.0,1.0,,18300,4.8374527,101.9611254,4.838804579892722,101.9624693798927,4.836104920107278,101.9597697201073
ChIJhYv9mSGxtjERVSQlm1BtSjA,Concept Property and Valuation Sdn Bhd(Kota Bharu),5.0,3.0,"['Monday: 9:00\u202fAM\u2009–\u20095:00\u202fPM', 'Tuesday: 9:00\u202fAM\u2009–\u20095:00\u202fPM', 'Wednesday: 9:00\u202fAM\u2009–\u20095:00\u202fPM', 'Thursday: 9:00\u202fAM\u2009–\u20095:00\u202fPM', 'Friday: 9:00\u202fAM\u2009–\u20095:00\u202fPM', 'Saturday: Closed', 'Sunday: Closed']",15200,6.1042133,102.2608503,6.105622829892722,102.2622498798927,6.102923170107278,102.2595502201073
ChIJGXFr-exJzDERJsqQT8w9Jto,KLCC (Holdings) Sdn Bhd,4.3,3.0,"['Monday: 8:00\u202fAM\u2009–\u20095:00\u202fPM', 'Tuesday: 8:00\u202fAM\u2009–\u20095:00\u202fPM', 'Wednesday: 8:00\u202fAM\u2009–\u20095:00\u202fPM', 'Thursday: 8:00\u202fAM\u2009–\u20095:00\u202fPM', 'Friday: 8:00\u202fAM\u2009–\u20095:00\u202fPM', 'Saturday: Closed', 'Sunday: Closed']",50050,3.1450401,101.694029,3.146305329892722,101.6952095298927,3.143605670107278,101.6925098701073
ChIJ2dK8sjY3zDERYLwlT7gTZDo,Seng Group of Companies HQ Kuala Lumpur Malaysia,5.0,2.0,"['Monday: 9:00\u202fAM\u2009–\u20095:00\u202fPM', 'Tuesday: 9:00\u202fAM\u2009–\u20095:00\u202fPM', 'Wednesday: 9:00\u202fAM\u2009–\u20095:00\u202fPM', 'Thursday: 9:00\u202fAM\u2009–\u20095:00\u202fPM', 'Friday: 9:00\u202fAM\u2009–\u20095:00\u202fPM', 'Saturday: Closed', 'Sunday: Closed']",55100,3.1447277,101.7211204,3.146084179892722,101.7224725298927,3.143384520107277,101.7197728701073
ChIJ862sEoFJzDERe8QFZmwaUIY,Unilever (Malaysia) Holdings Sdn. Bhd.,3.1,35.0,"['Monday: 9:00\u202fAM\u2009–\u20096:00\u202fPM', 'Tuesday: 9:00\u202fAM\u2009–\u20096:00\u202fPM', 'Wednesday: 9:00\u202fAM\u2009–\u20096:00\u202fPM', 'Thursday: 9:00\u202fAM\u2009–\u20096:00\u202fPM', 'Friday: 9:00\u202fAM\u2009–\u20096:00\u202fPM', 'Saturday: Closed', 'Sunday: Closed']",59200,3.1104542,101.6657394,3.111692829892722,101.6670921298927,3.108993170107277,101.6643924701073
ChIJHd2rFipKzDER7RU24leXFSw,UOA Corporate Tower,4.2,116.0,,59200,3.1114427,101.6661199,3.112704529892722,101.6671021798927,3.110004870107278,101.6644025201073
ChIJL8Dm-BBJzDERHzmBIhVZJVw,UMW Corporation Sdn. Bhd.,4.0,69.0,"['Monday: 9:00\u202fAM\u2009–\u20095:00\u202fPM', 'Tuesday: 9:00\u202fAM\u2009–\u20095:00\u202fPM', 'Wednesday: 9:00\u202fAM\u2009–\u20095:00\u202fPM', 'Thursday: 9:00\u202fAM\u2009–\u20095:00\u202fPM', 'Friday: 9:00\u202fAM\u2009–\u20095:00\u202fPM', 'Saturday: Closed', 'Sunday: Closed']",50250,3.1523502,101.7060084,3.153556079892722,101.7072916298927,3.150856420107278,101.7045919701073
ChIJOXLq4iBIzDERUHF8Vdq_FG4,UNITI Office at Menara Arina Uniti Kuala Lumpur,4.3,15.0,"['Monday: 8:30\u202fAM\u2009–\u20095:30\u202fPM', 'Tuesday: 8:30\u202fAM\u2009–\u20095:30\u202fPM', 'Wednesday: 8:30\u202fAM\u2009–\u20095:30\u202fPM', 'Thursday: 8:30\u202fAM\u2009–\u20095:30\u202fPM', 'Friday: 8:30\u202fAM\u2009–\u20095:30\u202fPM', 'Saturday: Closed', 'Sunday: Closed']",50300,3.1675286,101.7043012,3.169081279892722,101.7056513298927,3.166381620107277,101.7029516701073
ChIJ31m-WM9JzDER4VSg98D37tc,cbs Corporate Business Solutions Malaysia Sdn Bhd,0.0,0.0,"['Monday: 9:00\u202fAM\u2009–\u20096:00\u202fPM', 'Tuesday: 9:00\u202fAM\u2009–\u20096:00\u202fPM', 'Wednesday: 9:00\u202fAM\u2009–\u20096:00\u202fPM', 'Thursday: 9:00\u202fAM\u2009–\u20096:00\u202fPM', 'Friday: 9:00\u202fAM\u2009–\u20096:00\u202fPM', 'Saturday: Closed', 'Sunday: Closed']",50470,3.1327571,101.6865075,3.133851229892723,101.6880930798927,3.131151570107278,101.6853934201073
ChIJa4MLM8hJzDERaHKaFhFyU28,"Kalbe Malaysia Sdn, Bhd",0.0,0.0,"['Monday: 8:30\u202fAM\u2009–\u20095:30\u202fPM', 'Tuesday: 8:30\u202fAM\u2009–\u20095:30\u202fPM', 'Wednesday: 8:30\u202fAM\u2009–\u20095:30\u202fPM', 'Thursday: 8:30\u202fAM\u2009–\u20095:30\u202fPM', 'Friday: 8:30\u202fAM\u2009–\u20095:30\u202fPM', 'Saturday: Closed', 'Sunday: Closed']",50470,3.1325633,101.6843485,3.133950679892722,101.6856727298927,3.131251020107277,101.6829730701073
ChIJzS8_YRU3zDER81pXnooQNng,Compass Offices - Menara AIA Sentral - Serviced Office Kuala Lumpur,4.2,77.0,"['Monday: 8:30\u202fAM\u2009–\u20096:30\u202fPM', 'Tuesday: 8:30\u202fAM\u2009–\u20096:30\u202fPM', 'Wednesday: 8:30\u202fAM\u2009–\u20096:30\u202fPM', 'Thursday: 8:30\u202fAM\u2009–\u20096:30\u202fPM', 'Friday: 8:30\u202fAM\u2009–\u20096:30\u202fPM', 'Saturday: Closed', 'Sunday: Closed']",50250,3.1498686,101.7116632,3.151239529892722,101.7130830798927,3.148539870107278,101.7103834201073
ChIJ9XIJDi02zDERhmqfLuy7dVE,JNTO Japan National Tourism Organization Kuala Lumpur Office,2.8,5.0,"['Monday: 9:00\u202fAM\u2009–\u200912:00\u202fPM, 1:00\u2009–\u20095:00\u202fPM', 'Tuesday: 9:00\u202fAM\u2009–\u200912:00\u202fPM, 1:00\u2009–\u20095:00\u202fPM', 'Wednesday: 9:00\u202fAM\u2009–\u200912:00\u202fPM, 1:00\u2009–\u20095:00\u202fPM', 'Thursday: 9:00\u202fAM\u2009–\u200912:00\u202fPM, 1:00\u2009–\u20095:00\u202fPM', 'Friday: 9:00\u202fAM\u2009–\u200912:00\u202fPM, 1:00\u2009–\u20095:00\u202fPM', 'Saturday: Closed', 'Sunday: Closed']",50450,3.1492885,101.7161348,3.150745229892723,101.7174453798927,3.148045570107278,101.7147457201073
ChIJ_8EhwflLzDER7NdySQx1jx8,Apical (Malaysia) Sdn Bhd,0.0,0.0,"['Monday: 9:00\u202fAM\u2009–\u20096:30\u202fPM', 'Tuesday: 9:00\u202fAM\u2009–\u20096:30\u202fPM', 'Wednesday: 9:00\u202fAM\u2009–\u20096:30\u202fPM', 'Thursday: 9:00\u202fAM\u2009–\u20096:30\u202fPM', 'Friday: 9:00\u202fAM\u2009–\u20096:30\u202fPM', 'Saturday: Closed', 'Sunday: Closed']",59200,3.1114871,101.6671497,3.112957879892722,101.6684990798927,3.110258220107278,101.6657994201073
ChIJjxiExtY3zDERrjuUs9gBdgQ,Tata Consultancy Services Malaysia Sdn Bhd,4.4,52.0,"['Monday: 9:00\u202fAM\u2009–\u20096:00\u202fPM', 'Tuesday: 9:00\u202fAM\u2009–\u20096:00\u202fPM', 'Wednesday: 9:00\u202fAM\u2009–\u20096:00\u202fPM', 'Thursday: 9:00\u202fAM\u2009–\u20096:00\u202fPM', 'Friday: 9:00\u202fAM\u2009–\u20096:00\u202fPM', 'Saturday: Closed', 'Sunday: Closed']",50470,3.1338794,101.6847996,3.135194029892722,101.6862096298927,3.132494370107277,101.6835099701073
ChIJKSawWCk2zDERTN10vIBvy6g,Genting Malaysia Berhad,4.0,103.0,"['Monday: 9:00\u202fAM\u2009–\u20096:00\u202fPM', 'Tuesday: 9:00\u202fAM\u2009–\u20096:00\u202fPM', 'Wednesday: 9:00\u202fAM\u2009–\u20096:00\u202fPM', 'Thursday: 9:00\u202fAM\u2009–\u20096:00\u202fPM', 'Friday: 9:00\u202fAM\u2009–\u20096:00\u202fPM', 'Saturday: 9:00\u202fAM\u2009–\u200912:00\u202fPM', 'Sunday: Closed']",50250,3.1504526,101.7109832,3.151946329892723,101.7121024798927,3.149246670107278,101.7094028201073
ChIJbUV3UttJzDER4GrbxeBVFfI,Parlo Berhad,0.0,0.0,"['Monday: 9:00\u202fAM\u2009–\u20095:00\u202fPM', 'Tuesday: 9:00\u202fAM\u2009–\u20095:00\u202fPM', 'Wednesday: 9:00\u202fAM\u2009–\u20095:00\u202fPM', 'Thursday: 9:00\u202fAM\u2009–\u20095:00\u202fPM', 'Friday: 9:00\u202fAM\u2009–\u20095:00\u202fPM', 'Saturday: Closed', 'Sunday: Closed']",50460,3.1372197,101.6958059,3.138623529892723,101.6970972798927,3.135923870107278,101.6943976201073
ChIJj2LRvNY3zDERw6_PBJXJD_w,Microsoft Malaysia Office,4.4,69.0,"['Monday: 9:00\u202fAM\u2009–\u20096:00\u202fPM', 'Tuesday: 9:00\u202fAM\u2009–\u20096:00\u202fPM', 'Wednesday: 9:00\u202fAM\u2009–\u20096:00\u202fPM', 'Thursday: 9:00\u202fAM\u2009–\u20096:00\u202fPM', 'Friday: 9:00\u202fAM\u2009–\u20096:00\u202fPM', 'Saturday: Closed', 'Sunday: Closed']",50470,3.1310302,101.6847959,3.132257029892722,101.6862668298927,3.129557370107277,101.6835671701073
ChIJne7MDSpKzDERBWr9DPPeqhQ,Vertical Corporate Tower B,4.3,191.0,"['Monday: 9:00\u202fAM\u2009–\u20096:00\u202fPM', 'Tuesday: 9:00\u202fAM\u2009–\u20096:00\u202fPM', 'Wednesday: 9:00\u202fAM\u2009–\u20096:00\u202fPM', 'Thursday: 9:00\u202fAM\u2009–\u20096:00\u202fPM', 'Friday: 9:00\u202fAM\u2009–\u20096:00\u202fPM', 'Saturday: Closed', 'Sunday: Closed']",59200,3.1119034,101.666135,3.113250879892723,101.6674868298927,3.110551220107278,101.6647871701073
ChIJyZZh9tU3zDERaoBz-BmdpIk,Menara IMC,3.9,132.0,"['Monday: 8:30\u202fAM\u2009–\u20095:30\u202fPM', 'Tuesday: 8:30\u202fAM\u2009–\u20095:30\u202fPM', 'Wednesday: 8:30\u202fAM\u2009–\u20095:30\u202fPM', 'Thursday: 8:30\u202fAM\u2009–\u20095:30\u202fPM', 'Friday: 8:30\u202fAM\u2009–\u20095:30\u202fPM', 'Saturday: Closed', 'Sunday: Closed']",50250,3.1552724,101.7066441,3.156488329892723,101.7079450298927,3.153788670107278,101.7052453701073
ChIJBX6PNyJJzDERy5_UpOk4XB8,Plus Max Group of Companies,5.0,1.0,"['Monday: 9:00\u202fAM\u2009–\u20096:00\u202fPM', 'Tuesday: 9:00\u202fAM\u2009–\u20096:00\u202fPM', 'Wednesday: 9:00\u202fAM\u2009–\u20096:00\u202fPM', 'Thursday: 9:00\u202fAM\u2009–\u20096:00\u202fPM', 'Friday: 9:00\u202fAM\u2009–\u20096:00\u202fPM', 'Saturday: 9:00\u202fAM\u2009–\u20096:00\u202fPM', 'Sunday: Closed']",50450,3.1573952,101.7026259,3.158727979892722,101.7039272798927,3.156028320107278,101.7012276201073
ChIJVfpkVMBJzDERcYtUXbPmIqE,Axiata Group Berhad,3.8,32.0,"['Monday: 9:00\u202fAM\u2009–\u20096:00\u202fPM', 'Tuesday: 9:00\u202fAM\u2009–\u20096:00\u202fPM', 'Wednesday: 9:00\u202fAM\u2009–\u20096:00\u202fPM', 'Thursday: 9:00\u202fAM\u2009–\u20096:00\u202fPM', 'Friday: 9:00\u202fAM\u2009–\u20096:00\u202fPM', 'Saturday: Closed', 'Sunday: Closed']",50470,3.1337734,101.6842913,3.135048629892722,101.6855936798927,3.132348970107278,101.6828940201073
ChIJ8cOzOz03zDERzoY0Rn2A6J8,Pan Pacific Retail Management (Malaysia) Sdn Bhd,4.0,3.0,,50250,3.1459195,101.7121163,3.147268729892722,101.7134665298927,3.144569070107278,101.7107668701073
ChIJJWFND8BJzDERPZfKkatFtCI,Velesto Energy Berhad,4.4,19.0,"['Monday: 8:00\u202fAM\u2009–\u20096:00\u202fPM', 'Tuesday: 8:00\u202fAM\u2009–\u20096:00\u202fPM', 'Wednesday: 8:00\u202fAM\u2009–\u20096:00\u202fPM', 'Thursday: 8:00\u202fAM\u2009–\u20096:00\u202fPM', 'Friday: 8:00\u202fAM\u2009–\u20096:00\u202fPM', 'Saturday: Closed', 'Sunday: Closed']",50470,3.132268,101.6846925,3.133567029892722,101.6860838798927,3.130867370107278,101.6833842201073
ChIJ-4F5cMBJzDERWzTPkbapjEo,Google Malaysia,4.2,580.0,"['Monday: 9:00\u202fAM\u2009–\u20096:00\u202fPM', 'Tuesday: 9:00\u202fAM\u2009–\u20096:00\u202fPM', 'Wednesday: 9:00\u202fAM\u2009–\u20096:00\u202fPM', 'Thursday: 9:00\u202fAM\u2009–\u20096:00\u202fPM', 'Friday: 9:00\u202fAM\u2009–\u20096:00\u202fPM', 'Saturday: Closed', 'Sunday: Closed']",50470,3.1338094,101.6846052,3.134984149999999,101.6855163,3.131393950000001,101.6825387
ChIJw8s1u49JzDERl7wWeH4Dh5k,"Menara 1 Strata Office, KL Eco City",3.8,39.0,"['Monday: 9:00\u202fAM\u2009–\u20096:00\u202fPM', 'Tuesday: 9:00\u202fAM\u2009–\u20096:00\u202fPM', 'Wednesday: 9:00\u202fAM\u2009–\u20096:00\u202fPM', 'Thursday: 9:00\u202fAM\u2009–\u20096:00\u202fPM', 'Friday: 9:00\u202fAM\u2009–\u20096:00\u202fPM', 'Saturday: 9:00\u202fAM\u2009–\u20091:00\u202fPM', 'Sunday: Closed']",59200,3.1202849,101.6746057,3.121699629892722,101.6760127798927,3.118999970107278,101.6733131201073
ChIJ8zv6rupJzDERB6Eo_yEpfmI,MONDIALE Office,0.0,0.0,"['Monday: 8:00\u202fAM\u2009–\u20095:30\u202fPM', 'Tuesday: 8:00\u202fAM\u2009–\u20095:30\u202fPM', 'Wednesday: 8:00\u202fAM\u2009–\u20095:30\u202fPM', 'Thursday: 8:00\u202fAM\u2009–\u20095:30\u202fPM', 'Friday: 8:00\u202fAM\u2009–\u20095:30\u202fPM', 'Saturday: Closed', 'Sunday: Closed']",50470,3.1302364,101.6827112,3.131664829892722,101.6841322798927,3.128965170107278,101.6814326201073
ChIJQ_c1vrw3zDERWrerL7eydJY,Visa Malaysia Corporate Office,0.0,0.0,,50088,3.1582134,101.7130136,3.159598579892723,101.7144964298927,3.156898920107278,101.7117967701073
ChIJvRj24iBIzDER4jaaWt18Lbk,Menara Arina Uniti Kuala Lumpur,4.0,85.0,"['Monday: 9:00\u202fAM\u2009–\u20095:30\u202fPM', 'Tuesday: 9:00\u202fAM\u2009–\u20095:30\u202fPM', 'Wednesday: 9:00\u202fAM\u2009–\u20095:30\u202fPM', 'Thursday: 9:00\u202fAM\u2009–\u20096:00\u202fPM', 'Friday: 9:00\u202fAM\u2009–\u20096:00\u202fPM', 'Saturday: Closed', 'Sunday: Closed']",50300,3.1677136,101.7043356,3.169173779892723,101.7056877298927,3.166474120107278,101.7029880701073
ChIJ7cAfo69JzDERfBFq6CxJP_s,QS Quacquarelli Symonds (Kuala Lumpur_,0.0,0.0,,50470,3.1370086,101.6894842,3.138358429892722,101.6908340298927,3.135658770107277,101.6881343701073
ChIJt8BtXSs2zDEREDL4vyKBLt8,Pavilion Tower - Main Lobby | Office Suites Raja Chulan,4.4,434.0,"['Monday: 7:00\u202fAM\u2009–\u200910:00\u202fPM', 'Tuesday: 7:00\u202fAM\u2009–\u200910:00\u202fPM', 'Wednesday: 7:00\u202fAM\u2009–\u200910:00\u202fPM', 'Thursday: 7:00\u202fAM\u2009–\u200910:00\u202fPM', 'Friday: 7:00\u202fAM\u2009–\u200910:00\u202fPM', 'Saturday: 7:00\u202fAM\u2009–\u200910:00\u202fPM', 'Sunday: 7:00\u202fAM\u2009–\u200910:00\u202fPM']",50200,3.1497773,101.712324,3.151235129892723,101.7138916798927,3.148535470107278,101.7111920201073
ChIJ5docwV5JzDERmzzrZThKjmE,Q Sentral @ Kuala Lumpur Sentral | Freehold Grade A Strata Offices with Gold GBI Certificate,4.1,467.0,"['Monday: 9:00\u202fAM\u2009–\u20096:30\u202fPM', 'Tuesday: 9:00\u202fAM\u2009–\u20096:30\u202fPM', 'Wednesday: 9:00\u202fAM\u2009–\u20096:30\u202fPM', 'Thursday: 9:00\u202fAM\u2009–\u20096:30\u202fPM', 'Friday: 9:00\u202fAM\u2009–\u20096:30\u202fPM', 'Saturday: 9:00\u202fAM\u2009–\u20091:00\u202fPM', 'Sunday: Closed']",50470,3.1366046,101.6877164,3.137893829892723,101.6892098298927,3.135194170107278,101.6865101701073
ChIJN86pVg83zDERew5L2ojeN8I,Shapoorji Pallonji Oil & Gas Malaysia,0.0,0.0,,50450,3.1541738,101.7107881,3.155680829892722,101.7123518798927,3.152981170107278,101.7096522201073
ChIJkTb9W9U3zDERtkK5kn-qPT0,McDermott Asia Pacific Sdn Bhd,4.6,25.0,"['Monday: 8:00\u202fAM\u2009–\u20095:30\u202fPM', 'Tuesday: 8:00\u202fAM\u2009–\u20095:30\u202fPM', 'Wednesday: 8:00\u202fAM\u2009–\u20095:30\u202fPM', 'Thursday: 8:00\u202fAM\u2009–\u20095:30\u202fPM', 'Friday: 8:00\u202fAM\u2009–\u20095:30\u202fPM', 'Saturday: Closed', 'Sunday: Closed']",50250,3.1523202,101.7072313,3.153684479892722,101.7085860298927,3.150984820107277,101.7058863701073
ChIJi9zaFSpKzDERiYeatesueJA,Honeywell International Sdn. Bhd.,4.5,45.0,"['Monday: 9:00\u202fAM\u2009–\u20095:00\u202fPM', 'Tuesday: 9:00\u202fAM\u2009–\u20095:00\u202fPM', 'Wednesday: 9:00\u202fAM\u2009–\u20095:00\u202fPM', 'Thursday: 9:00\u202fAM\u2009–\u20095:00\u202fPM', 'Friday: 9:00\u202fAM\u2009–\u20095:00\u202fPM', 'Saturday: Closed', 'Sunday: Closed']",59200,3.1112961,101.6660455,3.112621379892722,101.6674517798927,3.109921720107277,101.6647521201073
ChIJSRp8IpRJzDERL3Vnx1Tj38E,City Facilities Management Sdn Bhd,3.9,9.0,"['Monday: 9:00\u202fAM\u2009–\u20096:00\u202fPM', 'Tuesday: 9:00\u202fAM\u2009–\u20096:00\u202fPM', 'Wednesday: 9:00\u202fAM\u2009–\u20096:00\u202fPM', 'Thursday: 9:00\u202fAM\u2009–\u20096:00\u202fPM', 'Friday: 9:00\u202fAM\u2009–\u20096:00\u202fPM', 'Saturday: Closed', 'Sunday: Closed']",59000,3.1283099,101.6788822,3.129731379892722,101.6801353798927,3.127031720107277,101.6774357201073
ChIJTWHxViVIzDERtVQSoYfwgHc,JKG Tower,4.1,31.0,"['Monday: 9:00\u202fAM\u2009–\u20095:30\u202fPM', 'Tuesday: 9:00\u202fAM\u2009–\u20095:30\u202fPM', 'Wednesday: 9:00\u202fAM\u2009–\u20095:30\u202fPM', 'Thursday: 9:00\u202fAM\u2009–\u20095:30\u202fPM', 'Friday: 9:00\u202fAM\u2009–\u20095:30\u202fPM', 'Saturday: Closed', 'Sunday: Closed']",50350,3.1616734,101.6958034,3.163039229892723,101.6970480798927,3.160339570107278,101.6943484201073
ChIJI3CuyY5JzDERPGhQA3GYkcI,Centrepoint South Tower,4.2,40.0,,58000,3.1177506,101.6765807,3.119120929892722,101.6778891298927,3.116421270107277,101.6751894701073
ChIJ48SqsS9IzDER8-LO-2UbY7A,Seek Asia,4.5,19.0,"['Monday: 8:30\u202fAM\u2009–\u20095:30\u202fPM', 'Tuesday: 8:30\u202fAM\u2009–\u20095:30\u202fPM', 'Wednesday: 8:30\u202fAM\u2009–\u20095:30\u202fPM', 'Thursday: 8:30\u202fAM\u2009–\u20095:30\u202fPM', 'Friday: 8:30\u202fAM\u2009–\u20095:30\u202fPM', 'Saturday: Closed', 'Sunday: Closed']",50100,3.1543028,101.6989746,3.155674879892722,101.7001285298927,3.152975220107277,101.6974288701073
ChIJIRe83OdJzDERdhYcWixhlr8,Lowyat Media Group,5.0,1.0,"['Monday: 9:00\u202fAM\u2009–\u20096:00\u202fPM', 'Tuesday: 9:00\u202fAM\u2009–\u20096:00\u202fPM', 'Wednesday: 9:00\u202fAM\u2009–\u20096:00\u202fPM', 'Thursday: 9:00\u202fAM\u2009–\u20096:00\u202fPM', 'Friday: 9:00\u202fAM\u2009–\u20096:00\u202fPM', 'Saturday: Closed', 'Sunday: Closed']",59200,3.120235,101.6775112,3.121454379892722,101.6787923798927,3.118754720107277,101.6760927201073
ChIJm4l03oJJzDERufAw-jMvTmY,Avillion Hotel Group,2.2,5.0,"['Monday: 8:30\u202fAM\u2009–\u20095:30\u202fPM', 'Tuesday: 8:30\u202fAM\u2009–\u20095:30\u202fPM', 'Wednesday: 8:30\u202fAM\u2009–\u20095:30\u202fPM', 'Thursday: 8:30\u202fAM\u2009–\u20095:30\u202fPM', 'Friday: 8:30\u202fAM\u2009–\u20095:30\u202fPM', 'Saturday: Closed', 'Sunday: Closed']",58000,3.1225928,101.6813686,3.123982329892722,101.6826903798927,3.121282670107278,101.6799907201073
ChIJrZGMUHZJzDERaoyoMl7hQD4,Publicis Re:Sources,0.0,0.0,,50200,3.1491311,101.7004857,3.150423229892723,101.7018503298927,3.147723570107278,101.6991506701073
ChIJT-GMl8FJzDERSFuQCUQd-tw,ReMark Malaysia Pte Ltd,4.2,271.0,"['Monday: 9:00\u202fAM\u2009–\u20096:00\u202fPM', 'Tuesday: 9:00\u202fAM\u2009–\u20096:00\u202fPM', 'Wednesday: 9:00\u202fAM\u2009–\u20096:00\u202fPM', 'Thursday: 9:00\u202fAM\u2009–\u20096:00\u202fPM', 'Friday: 9:00\u202fAM\u2009–\u20096:00\u202fPM', 'Saturday: Closed', 'Sunday: Closed']",50470,3.1308376,101.6845925,3.131879279892722,101.6860528798927,3.129179620107278,101.6833532201073
ChIJKa_RDeA3zDERyKINAsjtoYk,BossBoleh Register Sdn Bhd & Company Secretary.,4.7,111.0,"['Monday: 8:30\u202fAM\u2009–\u20096:00\u202fPM', 'Tuesday: 8:30\u202fAM\u2009–\u20096:00\u202fPM', 'Wednesday: 8:30\u202fAM\u2009–\u20096:00\u202fPM', 'Thursday: 8:30\u202fAM\u2009–\u20096:00\u202fPM', 'Friday: 8:30\u202fAM\u2009–\u20096:00\u202fPM', 'Saturday: Closed', 'Sunday: Closed']",55100,3.1398308,101.713547,3.141248029892723,101.7149292798927,3.138548370107278,101.7122296201073
ChIJm6eyaw02zDERRjPmSy747-A,Da Ma Cai Kuala Lumpur Regional Office,3.7,19.0,"['Monday: 9:00\u202fAM\u2009–\u20096:00\u202fPM', 'Tuesday: 9:00\u202fAM\u2009–\u20096:00\u202fPM', 'Wednesday: 9:00\u202fAM\u2009–\u20096:00\u202fPM', 'Thursday: 9:00\u202fAM\u2009–\u20096:00\u202fPM', 'Friday: 9:00\u202fAM\u2009–\u20096:00\u202fPM', 'Saturday: Closed', 'Sunday: Closed']",56100,3.1202471,101.7280736,3.121591229892722,101.7294818798927,3.118891570107278,101.7267822201073
ChIJpWob_ClKzDERgd3ey1XXK6U,Ørsted Malaysia,4.4,49.0,,59200,3.1114427,101.6661199,3.112791129892722,101.6675095298927,3.110091470107278,101.6648098701073
ChIJ____NipKzDERD7r2yDJvCe0,KHK Group,0.0,0.0,"['Monday: 9:30\u202fAM\u2009–\u20096:15\u202fPM', 'Tuesday: 9:30\u202fAM\u2009–\u20096:15\u202fPM', 'Wednesday: 9:30\u202fAM\u2009–\u20096:15\u202fPM', 'Thursday: 9:30\u202fAM\u2009–\u20096:15\u202fPM', 'Friday: 9:30\u202fAM\u2009–\u20096:15\u202fPM', 'Saturday: Closed', 'Sunday: Closed']",59200,3.1112387,101.6670194,3.112478029892722,101.6683665798927,3.109778370107278,101.6656669201073
ChIJNW2DKzdJzDEReLzFS0piN-U,J&T Express (Malaysia) Sdn Bhd,2.3,961.0,"['Monday: 9:00\u202fAM\u2009–\u20096:00\u202fPM', 'Tuesday: 9:00\u202fAM\u2009–\u20096:00\u202fPM', 'Wednesday: 9:00\u202fAM\u2009–\u20096:00\u202fPM', 'Thursday: 9:00\u202fAM\u2009–\u20096:00\u202fPM', 'Friday: 9:00\u202fAM\u2009–\u20096:00\u202fPM', 'Saturday: Closed', 'Sunday: Closed']",59200,3.1175511,101.673761,3.118668479892722,101.6751113298927,3.115968820107278,101.6724116701073
ChIJXxke5o1JzDERZ94dyvAhE2U,ASI KL,0.0,0.0,"['Monday: 9:00\u202fAM\u2009–\u20095:00\u202fPM', 'Tuesday: 9:00\u202fAM\u2009–\u20095:00\u202fPM', 'Wednesday: 9:00\u202fAM\u2009–\u20095:00\u202fPM', 'Thursday: 9:00\u202fAM\u2009–\u20095:00\u202fPM', 'Friday: 9:00\u202fAM\u2009–\u20095:00\u202fPM', 'Saturday: Closed', 'Sunday: Closed']",58000,3.1211548,101.6790768,3.122577179892722,101.6802761798927,3.119877520107277,101.6775765201073
ChIJY2p30cFJzDER8VwS0evt_fE,1 Sentral,4.0,230.0,"['Monday: 9:00\u202fAM\u2009–\u20096:00\u202fPM', 'Tuesday: 9:00\u202fAM\u2009–\u20096:00\u202fPM', 'Wednesday: 9:00\u202fAM\u2009–\u20096:00\u202fPM', 'Thursday: 9:00\u202fAM\u2009–\u20096:00\u202fPM', 'Friday: 9:00\u202fAM\u2009–\u20096:00\u202fPM', 'Saturday: Closed', 'Sunday: Closed']",50470,3.1314287,101.6833038,3.132808729892722,101.6846860798927,3.130109070107277,101.6819864201073
ChIJfywadNlJzDERMV2UR7b8xUQ,dōTERRA Malaysia Sdn. Bhd.,4.0,34.0,"['Monday: 11:00\u202fAM\u2009–\u20097:00\u202fPM', 'Tuesday: 11:00\u202fAM\u2009–\u20098:00\u202fPM', 'Wednesday: 11:00\u202fAM\u2009–\u20097:00\u202fPM', 'Thursday: 11:00\u202fAM\u2009–\u20098:00\u202fPM', 'Friday: 11:00\u202fAM\u2009–\u20097:00\u202fPM', 'Saturday: 11:00\u202fAM\u2009–\u20093:00\u202fPM', 'Sunday: Closed']",59200,3.1198112,101.6744003,3.121088229892722,101.6758720798927,3.118388570107278,101.6731724201073
ChIJU-mOOM5JzDERuJofG4rVgQQ,MISC Maritime Services Sdn Bhd,4.5,2.0,"['Monday: 9:00\u202fAM\u2009–\u20096:00\u202fPM', 'Tuesday: 9:00\u202fAM\u2009–\u20096:00\u202fPM', 'Wednesday: 9:00\u202fAM\u2009–\u20096:00\u202fPM', 'Thursday: 9:00\u202fAM\u2009–\u20096:00\u202fPM', 'Friday: 9:00\u202fAM\u2009–\u20096:00\u202fPM', 'Saturday: Closed', 'Sunday: Closed']",50050,3.1449,101.69408,3.146313029892722,101.6951542298927,3.143613370107278,101.6924545701073
ChIJW32VCfw3zDERhAXtlG2Jftg,V Office 1,0.0,0.0,"['Monday: 9:00\u202fAM\u2009–\u20096:00\u202fPM', 'Tuesday: 9:00\u202fAM\u2009–\u20096:00\u202fPM', 'Wednesday: 9:00\u202fAM\u2009–\u20096:00\u202fPM', 'Thursday: 9:00\u202fAM\u2009–\u20096:00\u202fPM', 'Friday: 9:00\u202fAM\u2009–\u20096:00\u202fPM', 'Saturday: Closed', 'Sunday: Closed']",55100,3.1281497,101.7246806,3.129491929892722,101.7260179798927,3.126792270107277,101.7233183201073
ChIJv8f4HapJzDER3aJ-O8ZhamM,Lexis Hotels & Resorts Sdn Bhd,3.8,21.0,"['Monday: 8:00\u202fAM\u2009–\u20096:00\u202fPM', 'Tuesday: 8:00\u202fAM\u2009–\u20096:00\u202fPM', 'Wednesday: 8:00\u202fAM\u2009–\u20096:00\u202fPM', 'Thursday: 8:00\u202fAM\u2009–\u20096:00\u202fPM', 'Friday: 8:00\u202fAM\u2009–\u20096:00\u202fPM', 'Saturday: 9:00\u202fAM\u2009–\u20094:00\u202fPM', 'Sunday: Closed']",50490,3.1467088,101.6619774,3.148034479892722,101.6632921298927,3.145334820107278,101.6605924701073
ChIJvzELmixIzDERUTtpkDEjaJ8,DutaLand Berhad,5.0,1.0,"['Monday: 9:00\u202fAM\u2009–\u20096:00\u202fPM', 'Tuesday: 9:00\u202fAM\u2009–\u20096:00\u202fPM', 'Wednesday: 9:00\u202fAM\u2009–\u20096:00\u202fPM', 'Thursday: 9:00\u202fAM\u2009–\u20096:00\u202fPM', 'Friday: 9:00\u202fAM\u2009–\u20096:00\u202fPM', 'Saturday: Closed', 'Sunday: Closed']",50200,3.149338,101.7005137,3.150803129892722,101.7018381298927,3.148103470107277,101.6991384701073
ChIJ2T1AgW9JzDERiVIH4BiBu3I,Global Savings Group Malaysia Sdn Bhd,0.0,0.0,"['Monday: 9:00\u202fAM\u2009–\u20096:00\u202fPM', 'Tuesday: 9:00\u202fAM\u2009–\u20096:00\u202fPM', 'Wednesday: 9:00\u202fAM\u2009–\u20096:00\u202fPM', 'Thursday: 9:00\u202fAM\u2009–\u20096:00\u202fPM', 'Friday: 9:00\u202fAM\u2009–\u20096:00\u202fPM', 'Saturday: Closed', 'Sunday: Closed']",59200,3.1183338,101.6771364,3.119756679892722,101.6783333298927,3.117057020107278,101.6756336701073
ChIJ5fmDV9U3zDERa1RaVzg3g7w,FPT Software Malaysia (FML),5.0,4.0,"['Monday: 8:00\u202fAM\u2009–\u20096:00\u202fPM', 'Tuesday: 8:00\u202fAM\u2009–\u20096:00\u202fPM', 'Wednesday: 8:00\u202fAM\u2009–\u20096:00\u202fPM', 'Thursday: 8:00\u202fAM\u2009–\u20096:00\u202fPM', 'Friday: 8:00\u202fAM\u2009–\u20096:00\u202fPM', 'Saturday: Closed', 'Sunday: Closed']",50250,3.1525402,101.7071572,3.153948179892722,101.7083893798927,3.151248520107278,101.7056897201073
ChIJbxo5B8BJzDERTCmN29nEfRs,Plaza Sentral,4.2,162.0,"['Monday: 9:00\u202fAM\u2009–\u20096:30\u202fPM', 'Tuesday: 9:00\u202fAM\u2009–\u20096:30\u202fPM', 'Wednesday: 9:00\u202fAM\u2009–\u20096:30\u202fPM', 'Thursday: 9:00\u202fAM\u2009–\u20096:30\u202fPM', 'Friday: 9:00\u202fAM\u2009–\u20096:30\u202fPM', 'Saturday: Closed', 'Sunday: Closed']",50470,3.1323673,101.6843387,3.133807479892722,101.6856103298927,3.131107820107278,101.6829106701073
ChIJQRRBIvFJzDERyUC1szuP6v8,Chatbot Malaysia HQ,0.0,0.0,"['Monday: Open 24 hours', 'Tuesday: Open 24 hours', 'Wednesday: Open 24 hours', 'Thursday: Open 24 hours', 'Friday: Open 24 hours', 'Saturday: Open 24 hours', 'Sunday: Open 24 hours']",60000,3.1520117,101.6226451,3.153361529892722,101.6239949298927,3.150661870107278,101.6212952701073
ChIJ47DU96lJzDERrFNzJysUAuM,Securities Services Holding Sdn Bhd,3.5,2.0,,50490,3.1468594,101.6621716,3.148264029892722,101.6636441298927,3.145564370107278,101.6609444701073
ChIJDQHR96lJzDERQtukfkMfI7I,Chevron Malaysia Limited,3.0,23.0,"['Monday: 8:30\u202fAM\u2009–\u20095:30\u202fPM', 'Tuesday: 8:30\u202fAM\u2009–\u20095:30\u202fPM', 'Wednesday: 8:30\u202fAM\u2009–\u20095:30\u202fPM', 'Thursday: 8:30\u202fAM\u2009–\u20095:30\u202fPM', 'Friday: 8:30\u202fAM\u2009–\u20095:30\u202fPM', 'Saturday: Closed', 'Sunday: Closed']",50490,3.1468688,101.6620378,3.148414479892722,101.6634242798927,3.145714820107278,101.6607246201073
ChIJn_FnGNhJzDERNcLtKk4zlZk,Virtuos Kuala Lumpur,0.0,0.0,"['Monday: 9:00\u202fAM\u2009–\u20096:00\u202fPM', 'Tuesday: 9:00\u202fAM\u2009–\u20096:00\u202fPM', 'Wednesday: 9:00\u202fAM\u2009–\u20096:00\u202fPM', 'Thursday: 9:00\u202fAM\u2009–\u20096:00\u202fPM', 'Friday: 9:00\u202fAM\u2009–\u20096:00\u202fPM', 'Saturday: Closed', 'Sunday: Closed']",59200,3.1125324,101.6675358,3.113834179892722,101.6688850298927,3.111134520107278,101.6661853701073
ChIJsWeLGatJzDERGCLs_JJ62Cw,The Clearwater Group,0.0,0.0,,50490,3.1501104,101.6644312,3.151421729892722,101.6658205798927,3.148722070107278,101.6631209201073
ChIJrXa5uEgZIzIRKcRuhAec9aA,QX Group Corporate Office,0.0,0.0,"['Monday: 8:30\u202fAM\u2009–\u20095:30\u202fPM', 'Tuesday: 8:30\u202fAM\u2009–\u20095:30\u202fPM', 'Wednesday: 8:30\u202fAM\u2009–\u20095:30\u202fPM', 'Thursday: 8:30\u202fAM\u2009–\u20095:30\u202fPM', 'Friday: 8:30\u202fAM\u2009–\u20095:30\u202fPM', 'Saturday: Closed', 'Sunday: Closed']",87000,5.2747214,115.2454622,5.276030079892722,115.2468936298928,5.273330420107278,115.2441939701073
ChIJ6wb8TtsYIzIRK5rNSB70vrw,Advaita Corporate PTE Ltd.,0.0,0.0,,87000,5.2757147,115.2476623,5.277064529892722,115.2490121298927,5.274364870107278,115.2463124701073
ChIJcyfZiwgZIzIRgHoBjwo0UtY,Empada Sdn Bhd (Corporate Office/HQ),4.0,1.0,"['Monday: 8:00\u202fAM\u2009–\u20096:00\u202fPM', 'Tuesday: 8:00\u202fAM\u2009–\u20096:00\u202fPM', 'Wednesday: 8:00\u202fAM\u2009–\u20096:00\u202fPM', 'Thursday: 8:00\u202fAM\u2009–\u20096:00\u202fPM', 'Friday: 8:00\u202fAM\u2009–\u20096:00\u202fPM', 'Saturday: 8:00\u202fAM\u2009–\u20096:00\u202fPM', 'Sunday: Closed']",87000,5.2689534,115.2310643,5.270300079892722,115.2324310298927,5.267600420107278,115.2297313701073
ChIJCUnc9ykfIzIRcnNhm_DdAu4,MDPC Labuan Office,4.8,4.0,,87000,5.2577921,115.2371733,5.25913802989272,115.2385019798927,5.256438370107277,115.2358023201073
ChIJG278WKQfIzIRfMpP_4zH-Kc,Roc Oil Office Labuan,0.0,0.0,,87000,5.2564126,115.2458091,5.257773429892721,115.2471209298927,5.255073770107277,115.2444212701073
ChIJ2cqLDNwYIzIR8wVundG_Fl4,Mc Ocean Office,0.0,0.0,,87000,5.2770169,115.2435769,5.278342829892722,115.2449088798927,5.275643170107278,115.2422092201072
ChIJ4ZrboicZIzIRcG-M4yvKfQ4,Bureau Veritas Scientige Office Labuan,4.0,1.0,,87000,5.274107,115.2347062,5.275407729892722,115.2360690798927,5.272708070107278,115.2333694201073
ChIJ0yfANP8ZIzIRdBfvi6-O_V8,"Development and Engineering Department, Labuan Corporation",0.0,0.0,,87000,5.279086599999999,115.2408584,5.280451029892722,115.2422175298927,5.277751370107278,115.2395178701073
ChIJQ7T52t0YIzIRK21XbOksYbU,Perbadanan Labuan,0.0,0.0,"['Monday: 9:00\u202fAM\u2009–\u20096:00\u202fPM', 'Tuesday: 9:00\u202fAM\u2009–\u20096:00\u202fPM', 'Wednesday: 9:00\u202fAM\u2009–\u20096:00\u202fPM', 'Thursday: 9:00\u202fAM\u2009–\u20096:00\u202fPM', 'Friday: 9:00\u202fAM\u2009–\u20096:00\u202fPM', 'Saturday: Closed', 'Sunday: Closed']",87000,5.279508,115.2429062,5.280784929892723,115.2442159298927,5.27808527010728,115.2415162701073
ChIJLd88yfwZIzIR3u-Pqin8dIU,Beras Corporation Sdn. Bhd. Cawangan Labuan,0.0,0.0,,87000,5.2951687,115.2387804,5.296478679892721,115.2401177798927,5.293779020107277,115.2374181201073
ChIJ557eGNwYIzIRVVjY2hmfH9s,Brighton Management Limited,3.5,4.0,"['Monday: 8:30\u202fAM\u2009–\u20095:30\u202fPM', 'Tuesday: 8:30\u202fAM\u2009–\u20095:30\u202fPM', 'Wednesday: 8:30\u202fAM\u2009–\u20095:30\u202fPM', 'Thursday: 8:30\u202fAM\u2009–\u20095:30\u202fPM', 'Friday: 8:30\u202fAM\u2009–\u20095:30\u202fPM', 'Saturday: Closed', 'Sunday: Closed']",87000,5.2778503,115.2431157,5.279247979892722,115.2443583298927,5.276548320107278,115.2416586701073
ChIJA0cOTykfIzIRsONy9eQ6lHI,ASB CHE ADMIN OFFICE,4.5,2.0,"['Monday: 7:00\u202fAM\u2009–\u20094:00\u202fPM', 'Tuesday: 7:00\u202fAM\u2009–\u20094:00\u202fPM', 'Wednesday: 7:00\u202fAM\u2009–\u20094:00\u202fPM', 'Thursday: 7:00\u202fAM\u2009–\u20094:00\u202fPM', 'Friday: 7:00\u202fAM\u2009–\u20094:00\u202fPM', 'Saturday: Closed', 'Sunday: Closed']",87000,5.2575163,115.2294421,5.259293179892722,115.2311405298927,5.256593520107278,115.2284408701073
ChIJW7AXe-EYIzIR9JzWdQzvoXg,Pacific Trustees Labuan Ltd.,0.0,0.0,,87000,5.2859717,115.2399449,5.287330079892722,115.2412782798927,5.284630420107277,115.2385786201073
ChIJyR_wXMMYIzIR38wnQZoKcFI,Challenge Group Inc.,0.0,0.0,"['Monday: 8:30\u202fAM\u2009–\u20095:30\u202fPM', 'Tuesday: 8:30\u202fAM\u2009–\u20095:30\u202fPM', 'Wednesday: 8:30\u202fAM\u2009–\u20095:30\u202fPM', 'Thursday: 8:30\u202fAM\u2009–\u20095:30\u202fPM', 'Friday: 8:30\u202fAM\u2009–\u20095:30\u202fPM', 'Saturday: Closed', 'Sunday: Closed']",87000,5.2765819,115.2545037,5.277800829892722,115.2558767798928,5.275101170107278,115.2531771201073
ChIJxyGADF0ZIzIRbERP5Nu5Sl8,Labuan Operations Base,0.0,0.0,,87008,5.2831456,115.230825,5.284457529892722,115.2321508298927,5.281757870107278,115.2294511701073
ChIJ-V_Z_0QZIzIRtrbSkwejIZM,Synergy Marine (L) Limited,5.0,1.0,"['Monday: 8:30\u202fAM\u2009–\u20095:30\u202fPM', 'Tuesday: 8:30\u202fAM\u2009–\u20095:30\u202fPM', 'Wednesday: 8:30\u202fAM\u2009–\u20095:30\u202fPM', 'Thursday: 8:30\u202fAM\u2009–\u20095:30\u202fPM', 'Friday: 8:30\u202fAM\u2009–\u20095:30\u202fPM', 'Saturday: Closed', 'Sunday: Closed']",87000,5.2783945,115.2465819,5.279694879892721,115.2479194798927,5.276995220107278,115.2452198201073
ChIJwamcJ30ZIzIRxMOiFgJRATc,Lot 49 Lazenda Nagalang Beach Residence shop office,0.0,0.0,,87000,5.3272571,115.2450916,5.328541279892722,115.2464483298927,5.325841620107278,115.2437486701073
ChIJPxeRoMQYIzIRmSHNLj54zy8,Anson Network (Malaysia) Limited,0.0,0.0,,87000,5.276356000000001,115.24943,5.278016229892722,115.2508552298927,5.275316570107278,115.2481555701072
ChIJi9nBBlgZIzIRXVgAae31xPE,Quasar Technology Pte Ltd,0.0,0.0,"['Monday: 9:00\u202fAM\u2009–\u20096:00\u202fPM', 'Tuesday: 9:00\u202fAM\u2009–\u20096:00\u202fPM', 'Wednesday: 9:00\u202fAM\u2009–\u20096:00\u202fPM', 'Thursday: 9:00\u202fAM\u2009–\u20096:00\u202fPM', 'Friday: 9:00\u202fAM\u2009–\u20096:00\u202fPM', 'Saturday: Closed', 'Sunday: Closed']",87000,5.2753844,115.2488268,5.276764429892721,115.2501852798928,5.274064770107278,115.2474856201073
ChIJ3_LXc40ZIzIRt41lDKZIGoM,MHD OFFSHORE GROUP LABUAN,0.0,0.0,,87000,5.2721349,115.2337631,5.273499979892722,115.2351887298927,5.270800320107278,115.2324890701073
ChIJh7f4Bv0YIzIRKUF3x0_j5n4,Oceancare Corporation Sdn Bhd (Labuan Yard),3.5,4.0,,87000,5.2934225,115.238984,5.294781979892721,115.2403133298927,5.292082320107277,115.2376136701073
ChIJLehLviIZIzIRWKJ4PW9LI3E,"Sk30, Harbour services corporation sdn.bhd",0.0,0.0,,87000,5.288836799999999,115.2269543,5.290187579892722,115.2282991798927,5.287487920107278,115.2255995201073
ChIJsV6_K3wfIzIR6uSXB6PbdDo,PTTEP LABUAN SUPPLY BASE MAIN OFFICE,0.0,0.0,,87000,5.2583769,115.2371048,5.259722429892721,115.2384329798927,5.257022770107278,115.2357333201073
ChIJv4OhqOIZIzIRY8JgBZH0bqM,HHA Associates Sdn Bhd (Labuan),5.0,3.0,,87000,5.2608256,115.2338725,5.262184279892723,115.2352376298927,5.259484620107279,115.2325379701073
ChIJTSoIGXoZIzIRttbnaQMMdKs,BM Trading Inc,0.0,0.0,,87000,5.278408400000001,115.246365,5.279727329892721,115.2477071798927,5.277027670107278,115.2450075201073
ChIJ8-v1XMcZIzIRY-3mFsHTENg,Swift Energy Limited,0.0,0.0,"['Monday: 9:00\u202fAM\u2009–\u20095:00\u202fPM', 'Tuesday: 9:00\u202fAM\u2009–\u20095:00\u202fPM', 'Wednesday: 9:00\u202fAM\u2009–\u20095:00\u202fPM', 'Thursday: 9:00\u202fAM\u2009–\u20095:00\u202fPM', 'Friday: 9:00\u202fAM\u2009–\u20095:00\u202fPM', 'Saturday: Closed', 'Sunday: Closed']",87000,5.2806339,115.2458931,5.282009279892721,115.2471996798927,5.279309620107277,115.2445000201073
ChIJfa9tur0ZIzIRwJub0k0MEx8,Lirunex,0.0,0.0,,87000,5.2809241,115.2446636,5.282158529892721,115.2459664798928,5.279458870107277,115.2432668201073
ChIJb3yEHdwYIzIRq3x25TWUV6E,RY services sdn bhd,0.0,0.0,,87000,5.2780152,115.2412196,5.279274379892722,115.2426077298927,5.276574720107278,115.2399080701073
ChIJmzC1oicZIzIRlxNPs7juxqE,BTECH ENERGY SDN BHD,5.0,2.0,,87000,5.274052999999999,115.234774,5.275402179892723,115.2361240298927,5.272702520107279,115.2334243701073
ChIJVcTGuN4YIzIRHIBN9h-WnTE,LDA Labuan (Holdings) Sdn. Bhd.,4.5,6.0,,87000,5.2780935,115.2404853,5.279509179892722,115.2418851298927,5.276809520107278,115.2391854701073
ChIJK8oUOioZIzIR0hZlgEC1uNk,"MS TIME SDN BHD, LABUAN BRANCH",3.0,1.0,,87000,5.266679,115.2341942,5.268103629892723,115.2359180298927,5.265403970107279,115.2332183701073
ChIJV2yJaSgZIzIRcLXz1nfDx5s,Soas Trust Limited,0.0,0.0,,87000,5.2753844,115.2488268,5.276764429892721,115.2501852798928,5.274064770107278,115.2474856201073
ChIJQSBR9i4fIzIRbUB_GXxwDw8,"Sabah Shell Petroleum Co. Ltd.,",3.9,13.0,,87000,5.255801,115.2450661,5.257147079892722,115.2464144298928,5.254447420107279,115.2437147701073
ChIJCyjM8NwYIzIR_S_R5qVLVRc,SABENAJADI Sdn Bhd.,0.0,0.0,,87000,5.2782751,115.2455682,5.279657529892722,115.2469294298927,5.276957870107278,115.2442297701073
ChIJS4JlqN4YIzIRHELpEani95A,ZSSSB,0.0,0.0,"['Monday: 8:30\u202fAM\u2009–\u20095:30\u202fPM', 'Tuesday: 8:30\u202fAM\u2009–\u20095:30\u202fPM', 'Wednesday: 8:30\u202fAM\u2009–\u20095:30\u202fPM', 'Thursday: 8:30\u202fAM\u2009–\u20095:30\u202fPM', 'Friday: 8:30\u202fAM\u2009–\u20095:30\u202fPM', 'Saturday: Closed', 'Sunday: 8:30\u202fAM\u2009–\u20091:00\u202fAM']",87000,5.2772709,115.2421276,5.278680079892721,115.2435014798927,5.275980420107278,115.2408018201073
ChIJ997mMscZIzIR2tWJJcXw5ig,SK MENARA JAYA ENTERPRISE,0.0,0.0,,87000,5.2791126,115.24703,5.280438679892722,115.2483741298928,5.277739020107278,115.2456744701073
ChIJ7aY8HN0YIzIRtW4lTFeT2Ss,PRO MARINE LOGISTICS & UNDERWATER SERVICES SDN BHD,0.0,0.0,,87000,5.2791368,115.2462934,5.280513029892722,115.2476503298927,5.277813370107278,115.2449506701073
ChIJ6wb8TtsYIzIRXQAI37EhwWo,South East Asian Labuan Investment Bank INC,0.0,0.0,"['Monday: 10:00\u202fAM\u2009–\u20096:00\u202fPM', 'Tuesday: 10:00\u202fAM\u2009–\u20096:00\u202fPM', 'Wednesday: 10:00\u202fAM\u2009–\u20096:00\u202fPM', 'Thursday: 10:00\u202fAM\u2009–\u20096:00\u202fPM', 'Friday: 10:00\u202fAM\u2009–\u20096:00\u202fPM', 'Saturday: 8:00\u202fAM\u2009–\u20096:00\u202fPM', 'Sunday: 9:00\u202fAM\u2009–\u20095:00\u202fPM']",87000,5.2757147,115.2476623,5.277064529892722,115.2490121298927,5.274364870107278,115.2463124701073
ChIJjd6TPhcZIzIRUCsPlhdRS3o,Baker Hughes DCF Warehouse,0.0,0.0,"['Monday: 7:00\u202fAM\u2009–\u20097:00\u202fPM', 'Tuesday: 9:00\u202fAM\u2009–\u20095:00\u202fPM', 'Wednesday: 9:00\u202fAM\u2009–\u20095:00\u202fPM', 'Thursday: 9:00\u202fAM\u2009–\u20095:00\u202fPM', 'Friday: 9:00\u202fAM\u2009–\u20095:00\u202fPM', 'Saturday: 9:00\u202fAM\u2009–\u20095:00\u202fPM', 'Sunday: Closed']",87000,5.2680603,115.2290795,5.269465829892722,115.2304414298927,5.266766170107278,115.2277417701073
ChIJ_Xx7XwgZIzIRE1XUYIHwR8o,"Borneo Inspection &Integrated Services Sdn Bhd, Labuan Yard",4.5,2.0,"['Monday: 8:00\u202fAM\u2009–\u20096:00\u202fPM', 'Tuesday: 8:00\u202fAM\u2009–\u20096:00\u202fPM', 'Wednesday: 8:00\u202fAM\u2009–\u20096:00\u202fPM', 'Thursday: 8:00\u202fAM\u2009–\u20096:00\u202fPM', 'Friday: 8:00\u202fAM\u2009–\u20096:00\u202fPM', 'Saturday: 8:00\u202fAM\u2009–\u20096:00\u202fPM', 'Sunday: Closed']",87000,5.2991268,115.2228626,5.300428929892722,115.2242041298928,5.297729270107278,115.2215044701073
ChIJJS9Lp8QYIzIRYC81IVyo2nI,ABC Signal Sdn Bhd,0.0,0.0,,87000,5.2763467,115.249305,5.277188729892721,115.2505095298928,5.274489070107277,115.2478098701073
ChIJhY2Ce9wZIzIRhgLR9wXjMXE,hjc forward enterprise,0.0,0.0,,87000,5.3031932,115.2331169,5.304602529892721,115.2344667298927,5.301902870107277,115.2317670701073
ChIJ74YF1u4YIzIRP-w5NVozD5I,TM Node Labuan,4.0,1.0,,87000,5.2862363,115.2512072,5.287468279892723,115.2524370798927,5.284768620107279,115.2497374201073
ChIJoWzTgOEZIzIRz3HYAKPZ_CE,Vesstech Synergy Sdn Bhd (Labuan),0.0,0.0,"['Monday: 8:00\u202fAM\u2009–\u20095:00\u202fPM', 'Tuesday: 8:00\u202fAM\u2009–\u20095:00\u202fPM', 'Wednesday: 8:00\u202fAM\u2009–\u20095:00\u202fPM', 'Thursday: 8:00\u202fAM\u2009–\u20095:00\u202fPM', 'Friday: 8:00\u202fAM\u2009–\u20095:00\u202fPM', 'Saturday: 8:00\u202fAM\u2009–\u20095:00\u202fPM', 'Sunday: Closed']",87000,5.2964232,115.2389967,5.297762729892722,115.2403439298927,5.295063070107278,115.2376442701073
ChIJtcHO0foYIzIRZToIwz3gWWA,Wira Pacific Services,3.7,3.0,"['Monday: 8:00\u202fAM\u2009–\u20095:00\u202fPM', 'Tuesday: 8:00\u202fAM\u2009–\u20095:00\u202fPM', 'Wednesday: 8:00\u202fAM\u2009–\u20095:00\u202fPM', 'Thursday: 8:00\u202fAM\u2009–\u20095:00\u202fPM', 'Friday: 8:00\u202fAM\u2009–\u20095:00\u202fPM', 'Saturday: 8:30\u202fAM\u2009–\u200911:30\u202fPM', 'Sunday: Closed']",87000,5.2913785,115.2459323,5.292819279892722,115.2473902298927,5.290119620107278,115.2446905701073
ChIJsUAbAEQZIzIRhXK9aiE8j_k,Vision Trading & Services,0.0,0.0,"['Monday: 8:30\u202fAM\u2009–\u20095:30\u202fPM', 'Tuesday: 8:30\u202fAM\u2009–\u20095:30\u202fPM', 'Wednesday: 8:30\u202fAM\u2009–\u20095:30\u202fPM', 'Thursday: 8:30\u202fAM\u2009–\u20095:30\u202fPM', 'Friday: 8:30\u202fAM\u2009–\u20095:30\u202fPM', 'Saturday: 9:00\u202fAM\u2009–\u200912:30\u202fPM', 'Sunday: Closed']",87000,5.2819788,115.2459116,5.283328629892721,115.2472614298927,5.280628970107277,115.2445617701073
